stop_id,stop_code,stop_name,stop_desc,stop_lat,stop_lon,zone_id,stop_url,location_type,parent_station,stop_timezone,wheelchair_boarding
1142704,1142704,VILLAGE WEST WALMART,,39.130065,-94.830952,,,,,,0
1011316,1011316,ON VILLAGE WEST PKWY AT SUNFLOWER LANE SEB,,39.124953,-94.828875,,,,,,0
101156,101156,ON VILLAGE WEST AT SUNFLOWER LANE NWB,,39.125312,-94.828875,,,,,,0
101155,101155,ON VILLAGE PKWY AT PRAIRIE CROSSING WB,,39.123864,-94.8246,,,,,,0
1011317,1011317,ON VILLAGE WEST PKWY AT PRAIRIE CROSSING SEB,,39.123487,-94.82436,,,,,,0
1011318,1011318,ON VILLAGE WEST PKWY AT CABELA DR SB,,39.118815,-94.818811,,,,,,0
114200,114200,ON VILLAGE WEST AT CABELA DR NORTHBOUND,,39.118976,-94.818485,,,,,,0
1012822,1012822,ON STATE AVE AT 95TH WESTBOUND,,39.116526,-94.799386,,,,,,0
1012816,1012816,ON STATE AVE AT 94TH WESTBOUND,,39.116511,-94.798117,,,,,,0
1011315,1011315,ON STATE AVE AT 94TH ST EB,,39.116275,-94.79734,,,,,,0
114026,114026,ON STATE AVE AT N 92ND ST  WESTBOUND,,39.116525,-94.792184,,,,,,0
1011319,1011319,ON STATE AVE AT 92ND EB,,39.116262,-94.791867,,,,,,0
1012823,1012823,ON STATE AVE AT 89TH EB,,39.116231,-94.785848,,,,,,0
1012815,1012815,ON STATE AVE AT 89TH WESTBOUND,,39.116456,-94.78551,,,,,,0
1011320,1011320,ON STATE AVE AT 86TH ST EB,,39.116218,-94.779253,,,,,,0
1012814,1012814,ON STATE AVE AT 86TH WESTBOUND,,39.11646,-94.779008,,,,,,0
114016,114016,ON STATE AVE  AT N 82ND ST WESTBOUND,,39.116468,-94.770193,,,,,,0
101154,101154,ON STATE AVE AT 82ND EB,,39.11622,-94.769007,,,,,,0
114013,114013,ON STATE AVE  AT N  78TH ST  WESTBOUND,,39.116526,-94.760726,,,,,,0
1142701,1142701,ON STATE AVE AT 78TH EB,,39.116257,-94.760237,,,,,,0
114036,114036,ON STATE AVE AT 75TH EASTBOUND,,39.116354,-94.754467,,,,,,0
114012,114012,ON STATE AVE  AT N  75TH ST  WESTBOUND,,39.11662,-94.75423,,,,,,0
1140390,1140390,KANSAS CITY KANSAS COMMUNITY COLLEGE,,39.120903,-94.748704,,,,,,0
1011301,1011301,ON STATE AVE AT CAMPUS DR WB,,39.116796,-94.747172,,,,,,0
1011302,1011302,ON STATE AVE AT CAMPUS DR EB,,39.116545,-94.746606,,,,,,0
114010,114010,ON STATE AVE AT N 69TH ST WESTBOUND,,39.116892,-94.73776,,,,,,0
114040,114040,ON STATE AVE  AT N  69TH ST  EASTBOUND,,39.116683,-94.737459,,,,,,0
1142702,1142702,ON STATE AVE AT 67TH EB,,39.116644,-94.734175,,,,,,0
1142700,1142700,ON STATE AVE AT 67TH WB,,39.116862,-94.734165,,,,,,0
114041,114041,ON STATE AVE AT N 65TH ST EASTBOUND,,39.116581,-94.72933,,,,,,0
114008,114008,ON STATE AVE  AT N 65TH WESTBOUND,,39.116848,-94.729327,,,,,,0
114042,114042,ON STATE AVE  AT N 62ND PLACE EASTBOUND,,39.116591,-94.72276,,,,,,0
114007,114007,ON STATE AVE  AT N  62ND PL  WESTBOUND,,39.116825,-94.722478,,,,,,0
234184,234184,ON MEXICO CITY AVE AT PARIS SOUTHBOUND,,39.303767,-94.718981,,,,,,0
234185,234185,KCI MEXICO CITY AVE C,,39.303533,-94.718905,,,,,,0
3807,3807,ON MEXICO CITY AVE AT PARIS NB,,39.304192,-94.718678,,,,,,0
22920,22920,ON BOGOTA CIR AT BRASILLIA AVE KCI EDGEMOR,,39.302472,-94.7184,,,,,,0
529202,529202,ON BOGOTA AT KCI SITE EASTBOUND,,39.302229,-94.718322,,,,,,0
114006,114006,ON STATE AVE  AT N  59TH PL WB,,39.116803,-94.716261,,,,,,0
234186,234186,KCI MEXICO CITY AVE D,,39.312604,-94.716211,,,,,,0
114043,114043,ON STATE AVE  AT N  59TH PL  EASTBOUND,,39.116577,-94.714575,,,,,,0
2460005,2460005,KCI AIRPORT TERMINAL C,,39.29836,-94.718353,,,,,,0
114044,114044,ON STATE AVE  AT N  57TH ST  EASTBOUND,,39.116535,-94.709989,,,,,,0
114003,114003,ON STATE AVE  AT MEADOWLARK LANE  WESTBOUND,,39.116771,-94.709604,,,,,,0
114045,114045,ON STATE AVE  AT N  55TH ST  EASTBOUND,,39.116516,-94.705264,,,,,,0
114005,114005,ON STATE AVE  AT N  55TH ST  WESTBOUND,,39.116752,-94.705034,,,,,,0
114046,114046,ON STATE AVE  AT N  52ND ST  EASTBOUND,,39.116493,-94.697386,,,,,,0
114004,114004,ON STATE AVE  AT N  52ND ST  WESTBOUND,,39.116726,-94.697163,,,,,,0
114047,114047,ON STATE AVE  AT N  50TH ST  EASTBOUND,,39.116482,-94.694685,,,,,,0
114002,114002,ON STATE AVE  AT N  50TH ST  WESTBOUND,,39.116709,-94.692706,,,,,,0
114001,114001,ON STATE AVE AT N  47TH ST  WESTBOUND,,39.116735,-94.686953,,,,,,0
474,474,47TH & STATE AVE METROCENTER SOUTHBOUND,N 47TH ST & ANN AVE,39.113408,-94.685842,,,,,,0
1012820,1012820,ON 47TH ST AT MINNESOTA AVE NB,,39.115906,-94.68645,,,,,,0
2340005,2340005,ON AMBASSADOR AT NORTH PLAZA CIRCLE SB,,39.30926,-94.682367,,,,,,0
129155,129155,ON AMBASSADOR AT SOUTHPLAZA CIR SB,,39.305132,-94.682154,,,,,,0
129154,129154,ON AMBASSADOR AT PLAZA CIRCLE NB,,39.308695,-94.681883,,,,,,0
129001,129001,ON AMBASSADOR AT 112TH ST SOUTHBOUND FARSIDE,,39.296498,-94.681783,,,,,,0
2606,2606,ON AMBASSADOR AT SOUTHPLAZA CIR NB,,39.304727,-94.681726,,,,,,0
129151,129151,ON AMBASSADOR AT 112TH NORTHBOUND NEARSIDE,,39.296463,-94.681645,,,,,,0
129002,129002,ON AMBASSADOR AT 111TH ST SB,,39.293116,-94.681643,,,,,,0
290145,290145,ON AMBASSDR AT 111TH NORTHBOUND,,39.293142,-94.681468,,,,,,0
2340002,2340002,ON AMBASSADOR AT 110TH ST SB,,39.290806,-94.679925,,,,,,0
290144,290144,ON AMBASSADOR DR AT 110TH ST NORTHBOUND FARSIDE,,39.290914,-94.679762,,,,,,0
129003,129003,ON AMBASSADOR AT 10771 AMBASSADOR SB,,39.288824,-94.678376,,,,,,0
290143,290143,ON AMBASSADOR DR AT 10771 AMBASSADOR NORTHBOUND,,39.288896,-94.678236,,,,,,0
1010041,1010041,ON STATE AT 41ST TERRACE WESTBOUND,,39.116878,-94.677956,,,,,,0
1070001,1070001,ON STATE AT 41ST TERRACE EASTBOUND,,39.116563,-94.677382,,,,,,0
129004,129004,ON AMBASSADOR AT 107TH TERR SB,,39.287129,-94.677026,,,,,,0
290142,290142,ON AMBASSADOR DR AT 107TH TERR NORTHBOUND,,39.287048,-94.676764,,,,,,0
24321,24321,ON AMBASSADOR AT 106TH NB,,39.28514,-94.675352,,,,,,0
129005,129005,ON AMBASSADOR AT 106TH ST SOUTHBOUND,,39.284921,-94.675345,,,,,,0
1010101,1010101,REMOVEJAN2019 ON STATE AT 38TH EASTBOUND,,39.116578,-94.673488,,,,,,0
129006,129006,ON AMBASSADOR AT POMONA SB,,39.282797,-94.672014,,,,,,0
24319,24319,ON AMBASSADOR AT POMONA NB,,39.282949,-94.671934,,,,,,0
1020104,1020104,ON STATE AVE AT 37TH WESTBOUND,,39.116883,-94.670665,,,,,,0
1020089,1020089,ON STATE AVE AT 37TH ST EASTBOUND,,39.116608,-94.670663,,,,,,0
229182,229182,ON N AMBASSADOR AT 103RD SOUTHBOUND FARSIDE,,39.27987,-94.670539,,,,,,0
229181,229181,ON N AMBASSADOR AT 10383 N AMBASSADOR DRIVE NB,,39.28027,-94.670116,,,,,,0
129009,129009,ON EXECUTIVE HILLS BLVD AT TIFFANY SPRINGS PKWY SB,,39.2749,-94.668282,,,,,,0
2460010,2460010,ON EXECUTIVE HILLS BLVD AT TIFFANY SPRINGS PKWY NB,,39.274996,-94.667927,,,,,,0
1020103,1020103,ON STATE AVE AT 34TH WESTBOUND,,39.11681,-94.667301,,,,,,0
1020090,1020090,ON STATE AVE AT 34TH ST EASTBOUND,,39.116693,-94.667042,,,,,,0
101007,101007,ON STATE AVE AT 32ND STREET EB,,39.116696,-94.665742,,,,,,0
1012819,1012819,ON STATE AVE AT 32ND ST WB,,39.116817,-94.665724,,,,,,0
2460009,2460009,ON TIFFANY SPRINGS AT WORLDSPAN NB,,39.273496,-94.665094,,,,,,0
129010,129010,ON TIFFANY SPRINGS PKWY AT WORLD SPAN SB,,39.272761,-94.664668,,,,,,0
1020102,1020102,ON STATE AVE AT 31ST WESTBOUND,,39.116817,-94.664288,,,,,,0
1020091,1020091,ON STATE AVE AT 31ST EASTBOUND,,39.116696,-94.664287,,,,,,0
23102,23102,ON AMBASSADOR AT POLO SOUTHBOUND NEARSIDE,,39.270856,-94.663992,,,,,,0
23101,23101,ON AMBASSADOR AT POLO NORTHBOUND FARSIDE,,39.271151,-94.663571,,,,,,0
129157,129157,ON PRAIRIE VIEW AT BARRY SB,,39.246597,-94.661763,,,,,,0
1020081,1020081,ON STATE AT 29TH ST WESTBOUND,,39.116825,-94.661696,,,,,,0
1020092,1020092,ON STATE AVE AT 29TH ST EASTBOUND,,39.116705,-94.661631,,,,,,0
2900553,2900553,ON PRAIRIE VIEW RD AT BARRY RD NORTHBOUND,,39.246695,-94.661324,,,,,,0
6563,6563,ON PRAIRIEVIEW AT 83RD TERR NB,,39.244987,-94.659082,,,,,,0
243703,243703,ON PRAIRIE VIEW AT 83RD SB,,39.244332,-94.659016,,,,,,0
290011,290011,ON PRAIRIE VIEW AT 77TH TERR SOUTHBOUND,,39.235468,-94.658966,,,,,,0
290010,290010,ON PRAIRIE VIEW AT 80TH TERR SOUTHBOUND,,39.240273,-94.658954,,,,,,0
24317,24317,COURTESY ON PRAIRIEVIEW AT 80TH NB,,39.2396,-94.658758,,,,,,0
24316,24316,ON PRAIRIEVIEW AT 77TH TERR NORTHBOUND,,39.235308,-94.658722,,,,,,0
1012802,1012802,ON STATE AVE AT WASHINGTON EB,,39.116711,-94.658122,,,,,,0
1012818,1012818,ON STATE AVE AT WASHINGTON WB,,39.116837,-94.657894,,,,,,0
2900011,2900011,ON PRAIRIE VIEW AT 7520 PRAIRIE VIEW RD SB,,39.231708,-94.657859,,,,,,0
24315,24315,ON PRAIRIEVIEW AT TOWER NB,,39.231734,-94.657727,,,,,,0
129153,129153,ON N AMBASSADOR AT 9500 N AMBASSADOR SB,,39.26353,-94.657615,,,,,,0
2,2,BOARDWALK SQUARE METROCENTER,,39.251898,-94.656383,,,,,,0
129152,129152,ON N AMBASSADOR DR AT 9511 N AMBASSADOR NB,,39.26399,-94.656208,,,,,,0
1012810,1012810,ON STATE AVE AT 24TH WESTBOUND,,39.116844,-94.655886,,,,,,0
1012817,1012817,ON STATE AVE AT 24TH EB,,39.116727,-94.655599,,,,,,0
1292500,1292500,ON BOARDWALK AT 8500 SB,,39.247511,-94.655268,,,,,,0
1292501,1292501,ON BOARDWALK AT 8501 NB,,39.247558,-94.655,,,,,,0
231156,231156,ON N BOARDWALK AT 8650 N BOARDWALK AVE WB,,39.252606,-94.652848,,,,,,0
231155,231155,ON N BOARDWALK AT 8581 N BOARDWALK AVE EB,,39.252374,-94.652843,,,,,,0
1012803,1012803,ON STATE AVE AT HOEL PKWY EB,,39.116507,-94.65246,,,,,,0
1011308,1011308,ON HOEL PKWY AT STATE AVE NB,,39.116468,-94.652205,,,,,,0
2900509,2900509,ON PRAIRIE VIEW AT 72ND SOUTHBOUND,,39.22491,-94.652011,,,,,,0
290013,290013,ON PRAIRIE VIEW AT 72ND NORTHBOUND,,39.224996,-94.651844,,,,,,0
136162,136162,INNACTON N BOARDWALK AT 8330 N BOARDWALK WESTBOUND,,39.252603,-94.650899,,,,,,0
2900510,2900510,ON PRAIRIE VIEW AT 70TH SOUTHBOUND,,39.22234,-94.649788,,,,,,0
23108,23108,ON AMBASSADOR AT SKYVIEW SB,,39.252643,-94.649764,,,,,,0
5546,5546,ON AMBASSADOR AT OLD TIFFANY SPRINGS SB,,39.261557,-94.649581,,,,,,0
136152,136152,ON ST CLAIR AT AMBASSADOR WB,,39.25034,-94.649478,,,,,,0
1011309,1011309,ON MINNESOTA AT 18TH ST EB,,39.115476,-94.649455,,,,,,0
5994,5994,ON AMBASSADOR AT OLD TIFFANY SPRINGS NB,,39.261682,-94.649275,,,,,,0
23107,23107,ON AMBASSADOR AT SKYVIEW NB,N EXECUTIVE HILLS BLVD & N SKYVIEW AVE,39.25797,-94.649328,,,,,,0
4731,4731,ON ST CLAIR AT AMBASSADOR EB,,39.250211,-94.648496,,,,,,0
1011307,1011307,ON MINNESOTA AT 18TH ST WB,,39.115567,-94.648255,,,,,,0
243702,243702,ON ST CLAIR AT 8501 ST CLAIR SB,,39.24828,-94.647161,,,,,,0
1011310,1011310,ON MINNESOTA AT 16TH ST EB,,39.115462,-94.647157,,,,,,0
243701,243701,ON ST CLAIR AT 8504 ST CLAIR NB,,39.248796,-94.647044,,,,,,0
290008,290008,ON BARRY RD AT ST CLAIR WESTBOUND,,39.246931,-94.64697,,,,,,0
1011306,1011306,ON MINNESOTA AT 16TH ST WB,,39.115569,-94.646924,,,,,,0
1421512,1421512,ON BARRY AT ST CLAIR EB,,39.246711,-94.646671,,,,,,0
290015,290015,ON PRAIRIE VIEW AT KLAMM SOUTHBOUND,,39.21765,-94.645575,,,,,,0
24312,24312,COURTESY ON PRAIRIE VIEW AT KLAMM NB,,39.217704,-94.64546,,,,,,0
1011311,1011311,ON MINNESOTA AT 14TH ST EB,,39.115463,-94.644815,,,,,,0
1011305,1011305,ON MINNESOTA AT 14TH WB,,39.115571,-94.644582,,,,,,0
1292502,1292502,ON N CHANTHAM AT 6450 N CHATHAM SOUTHBOUND,,39.212129,-94.643279,,,,,,0
1011312,1011312,ON MINNESOTA AT 13TH ST EB,,39.115467,-94.643231,,,,,,0
1290010,1290010,ON N CHATHAM AVE AT 64TH NORTHBOUND (HYVEE),,39.211942,-94.64319,,,,,,0
1420314,1420314,ON BARRY RD AT WAUKOMIS DR EB,,39.246593,-94.643135,,,,,,0
1011304,1011304,ON MINNESOTA AT 13TH ST WB,,39.115574,-94.642999,,,,,,0
1420313,1420313,ON BARRY RD AT WAUKOMIS  WB,,39.246846,-94.642671,,,,,,0
1011313,1011313,ON MINNESOTA AT 12TH ST EB,,39.115464,-94.640834,,,,,,0
1011303,1011303,ON MINNESOTA AT 12TH ST WB,,39.115571,-94.640601,,,,,,0
290016,290016,ON PRAIRIE VIEW AT 64TH SOUTHBOUND,,39.210433,-94.640167,,,,,,0
1011314,1011314,ON MINNESOTA AT 11TH ST EB,,39.115468,-94.638241,,,,,,0
1010024,1010024,ON MINNESOTA AT 11TH WESTBOUND,,39.115573,-94.638005,,,,,,0
14217,14217,ON BARRY RD AT BEAMAN EB,,39.246479,-94.636476,,,,,,0
14216,14216,ON BARRY RD AT BEAMAN WB,,39.246684,-94.636123,,,,,,0
1010023,1010023,ON MINNESOTA AT 10TH WESTBOUND,,39.115575,-94.635032,,,,,,0
1010118,1010118,ON MINNESOTA AT 10TH EASTBOUND,,39.115483,-94.634994,,,,,,0
290018,290018,ON PRAIRIE VIEW AT 61ST SOUTHBOUND,,39.205289,-94.63446,,,,,,0
24309,24309,COURTESY ON PRAIRIEVIEW AT 61ST NB,,39.205269,-94.634248,,,,,,0
1010119,1010119,ON MINNESOTA AT 9TH EASTBOUND,,39.115483,-94.632511,,,,,,0
1040017,1040017,ON MINNESOTA AT 9TH WESTBOUND,,39.115588,-94.63228,,,,,,0
290007,290007,ON BARRY AT GREEN HILLS WB,,39.246727,-94.631246,,,,,,0
290135,290135,ON BARRY RD AT GREEN HILLS EB,,39.246468,-94.63123,,,,,,0
24308,24308,COURTESY ON PRAIRIEVIEW AT NORTHWOOD NB,,39.203023,-94.631164,,,,,,0
2900012,2900012,ON PRAIRIE VIEW AT NORTHWOOD SB,,39.202847,-94.631148,,,,,,0
1040016,1040016,ON MINNESOTA AT 8TH WESTBOUND,,39.115583,-94.629808,,,,,,0
1010120,1010120,ON MINNESOTA AT 8TH EASTBOUND,,39.115482,-94.629722,,,,,,0
2482,2482,ON PRAIRIE VIEW AT AMORET SB,,39.200549,-94.627759,,,,,,0
129156,129156,ON PRAIRIE VIEW AT AMORET NB,,39.200616,-94.627625,,,,,,0
10101,10101,ON MINNESOTA AVE AT 7TH STREET WB,,39.115568,-94.626944,,,,,,0
1420315,1420315,ON BARRY RD AT GRANBY EASTBOUND,,39.246392,-94.626891,,,,,,0
1070034,1070034,ON 7TH AT TOURAMEE SOUTHBOUND,,39.111814,-94.626878,,,,,,0
1070033,1070033,ON 7TH BETWEEN ANN AND BARNETT SB,,39.113262,-94.626876,,,,,,0
1070035,1070035,ON 7TH AT ORVILLE SOUTHBOUND,,39.109951,-94.626872,,,,,,0
1070036,1070036,ON 7TH AT SPLITLOG SOUTHBOUND,,39.109118,-94.626866,,,,,,0
1070039,1070039,ON 7TH AT REYNOLDS SOUTHBOUND,,39.104628,-94.626841,,,,,,0
1070037,1070037,ON 7TH AT NORTHRUP SOUTHBOUND,,39.107362,-94.626841,,,,,,0
1070038,1070038,ON 7TH AT TENNY SOUTHBOUND,,39.106422,-94.626836,,,,,,0
1070086,1070086,ON 7TH AT TENNY NORTHBOUND,,39.106394,-94.626725,,,,,,0
1070090,1070090,ON 7TH AT TAUROMEE NORTHBOUND,,39.111631,-94.626725,,,,,,0
1070091,1070091,ON 7TH AT BARNETT NORTHBOUND,,39.11282,-94.626724,,,,,,0
1070088,1070088,ON 7TH AT OHIO NORTHBOUND,,39.108037,-94.626724,,,,,,0
1072501,1072501,ON 7TH ST AT MINNESOTA NB,,39.115558,-94.626746,,,,,,0
1072500,1072500,ON 7TH ST AT SPLITLOG NB,,39.108941,-94.626723,,,,,,0
1070089,1070089,ON 7TH AT ORVILLE NORTHBOUND,,39.10977,-94.626715,,,,,,0
1070085,1070085,ON 7TH AT REYNOLDS NORTHBOUND,,39.104637,-94.626685,,,,,,0
101002,101002,ON MINNESOTA AVE AT 7TH STREET EB,,39.115464,-94.62653,,,,,,0
1070040,1070040,ON 7TH AT CENTRAL SOUTHBOUND,,39.102609,-94.626285,,,,,,0
1070041,1070041,ON 7TH AT LOWELL SOUTHBOUND,,39.101061,-94.626275,,,,,,0
1070042,1070042,ON 7TH AT PACIFIC SOUTHBOUND,,39.099104,-94.626217,,,,,,0
1420312,1420312,ON BARRY RD AT GRANBY WESTBOUND,,39.246629,-94.62613,,,,,,0
1070084,1070084,ON 7TH AT CENTRAL NORTHBOUND,,39.102656,-94.626117,,,,,,0
1070083,1070083,ON 7TH AT LOWELL AVE NORTHBOUND,,39.100883,-94.626103,,,,,,0
1070043,1070043,ON 7TH AT KANSAS SOUTHBOUND,,39.087307,-94.626076,,,,,,0
1070082,1070082,ON 7TH AT PACIFIC NORTHBOUND,,39.098923,-94.626059,,,,,,0
1070044,1070044,ON 7TH AT OSAGE SOUTHBOUND,,39.084429,-94.625949,,,,,,0
1070045,1070045,ON 7TH AT MIAMI SOUTHBOUND,,39.082494,-94.625893,,,,,,0
1070081,1070081,ON 7TH AT KANSAS NORTHBOUND,,39.087433,-94.625784,,,,,,0
1070046,1070046,ON 7TH AT CHEYENNE SOUTHBOUND,,39.080806,-94.625766,,,,,,0
1070080,1070080,ON 7TH AT OSAGE NORTHBOUND,,39.084452,-94.625683,,,,,,0
1040091,1040091,ON 7TH AT CHEYENNE NORTHBOUND,,39.080787,-94.625615,,,,,,0
1040092,1040092,ON 7TH AT MIAMI NORTHBOUND,,39.082318,-94.625613,,,,,,0
1010017,1010017,ON 6TH AT ANN SOUTHBOUND,,39.113705,-94.624141,,,,,,0
1060017,1060017,ON 6TH AT MINNESOTA SOUTHBOUND,,39.115416,-94.624138,,,,,,0
1070047,1070047,ON 7TH AT METROPOLITAN SOUTHBOUND,,39.072513,-94.622899,,,,,,0
1040090,1040090,ON 7TH AT STEIN NORTHBOUND,,39.07266,-94.62267,,,,,,0
106158,106158,ON MINNESOTA AT 5TH WB,,39.115588,-94.622091,,,,,,0
290134,290134,ON BARRY RD AT ROBINHOOD EASTBOUND,,39.246321,-94.621689,,,,,,0
1070128,1070128,ON MISSION AT 45TH AVE SOUTHBOUND,,39.046276,-94.621371,,,,,,0
1070127,1070127,ON MISSION AT SENECA SOUTHBOUND,,39.049236,-94.621345,,,,,,0
290006,290006,ON BARRY RD AT ROBINHOOD WESTBOUND,,39.246579,-94.621296,,,,,,0
101152,101152,ON ARMSTRONG AT 5TH WB,,39.114622,-94.621248,,,,,,0
2900515,2900515,ON PRAIRIE VIEW AT 56TH SOUTHBOUND,,39.196108,-94.62121,,,,,,0
1012501,1012501,ON MINNESOTA AT 5TH EB,,39.115421,-94.621131,,,,,,0
290014,290014,ON 56TH AT PRAIRIEVIEW WB,,39.196208,-94.620961,,,,,,0
1070129,1070129,ON 47TH AT MISSION EASTBOUND,,39.044012,-94.620151,,,,,,0
1070126,1070126,ON 43RD AT MINNIE WESTBOUND,,39.050273,-94.619107,,,,,,0
1012806,1012806,ON ARMSTRONG AT 4TH WESTBOUND,,39.114623,-94.618611,,,,,,0
1070125,1070125,ON 43RD AT FISHER WESTBOUND,,39.050351,-94.616859,,,,,,0
106157,106157,ON JAMES ST AT 346 JAMES ST EASTBOUND,,39.109677,-94.613979,,,,,,0
10601,10601,ON JAMES STREET AT 346 JAMES STREET NWB,,39.10958,-94.613743,,,,,,0
1070124,1070124,ON 43RD AT BOOTH WESTBOUND,,39.050317,-94.613739,,,,,,0
1420318,1420318,ON BARRY RD AT ALLENTON EB,,39.246221,-94.613698,,,,,,0
107051,107051,ON RAINBOW AT SW BLVD NORTHBOUND,,39.06775,-94.613441,,,,,,0
1420309,1420309,ON BARRY AT ALLENTON WESTBOUND,,39.246491,-94.613268,,,,,,0
107050,107050,ON RAINBOW AT SW BLVD SOUTHBOUND,,39.066313,-94.613228,,,,,,0
1070130,1070130,ON 47TH AT ADAMS EASTBOUND,,39.044032,-94.613212,,,,,,0
1070055,1070055,ON RAINBOW AT 36TH SOUTHBOUND,,39.060544,-94.613181,,,,,,0
1070054,1070054,ON RAINBOW AT 35TH SOUTHBOUND,,39.063552,-94.613157,,,,,,0
1070067,1070067,ON RAINBOW AT 36TH NORTHBOUND,,39.060203,-94.612891,,,,,,0
1070068,1070068,ON RAINBOW AT 35TH NORTHBOUND,,39.063501,-94.612825,,,,,,0
1031526,1031526,ON JAMES ST AT RIVERVIEW AVE SB,,39.107589,-94.612521,,,,,,0
1031544,1031544,ON JAMES AT RIVERVIEW NORTHBOUND,,39.107481,-94.61229,,,,,,0
392901,392901,ON 39TH AT RAINBOW WESTBOUND,,39.057423,-94.612147,,,,,,0
1070060,1070060,ON RAINBOW AT 43RD SOUTHBOUND,,39.050342,-94.611988,,,,,,0
1072507,1072507,ON RAINBOW AT 4140 RAINBOW SB,,39.052549,-94.611965,,,,,,0
1070056,1070056,ON RAINBOW AT 39TH SOUTHBOUND FARSIDE,,39.056986,-94.611962,,,,,,0
1070058,1070058,ON RAINBOW AT OLATHE BLVD SOUTHBOUND,,39.054258,-94.611918,,,,,,0
1072506,1072506,ON RAINBOW AT 3948 RAINBOW SB,,39.055628,-94.611916,,,,,,0
1070122,1070122,ON RAINBOW AT 46TH NORTHBOUND,,39.04452,-94.611854,,,,,,0
1070123,1070123,ON RAINBOW AT 45TH NORTHBOUND,,39.046261,-94.611826,,,,,,0
1070063,1070063,ON RAINBOW AT LUTHERAN CHURCH NORTHBOUND,,39.052591,-94.611778,,,,,,0
1070064,1070064,ON RAINBOW AT OLATHE BLVD  NORTHBOUND,,39.054427,-94.611762,,,,,,0
1070062,1070062,ON RAINBOW AT 43RD NORTHBOUND,,39.050409,-94.611698,,,,,,0
1070066,1070066,ON RAINBOW AT 39TH NORTHBOUND NEARSIDE,,39.057098,-94.61169,,,,,,0
1031527,1031527,ON JAMES AT LYON EASTBOUND,,39.105584,-94.611122,,,,,,0
1031543,1031543,ON W 9TH ST AT LYON AVE WB,,39.105806,-94.611121,,,,,,0
392314,392314,ON 39TH ST AT KU MED CENTER LIBRARY WESTBOUND,,39.05747,-94.610259,,,,,,0
390119,390119,ON 39TH AT KU MED CENTER EASTBOUND,,39.057233,-94.609724,,,,,,0
5600094,5600094,ON STATE LN AT 103RD TERRACE SOUTHBOUND,,38.940246,-94.608911,,,,,,0
1750055,1750055,ON STATE LINE AT 83RD SOUTHBOUND,,38.978906,-94.60858,,,,,,0
1750054,1750054,ON STATE LINE AT 82ND STREET SOUTHBOUND,,38.980108,-94.608529,,,,,,0
5600133,5600133,ON STATE LN AT 103RD TERRACE NORTHBOUND,,38.940096,-94.608486,,,,,,0
1750056,1750056,ON STATE LINE AT 84TH TERRACE SOUTHBOUND NEARSIDE,,38.975214,-94.608425,,,,,,0
1750053,1750053,ON STATE LINE AT 81ST SOUTHBOUND,,38.981949,-94.608374,,,,,,0
1750068,1750068,ON STATE LINE AT 83RD NORTHBOUND,,38.978568,-94.608314,,,,,,0
1750069,1750069,ON STATE LINE AT 82ND SPRINT NORTHBOUND,,38.980221,-94.608263,,,,,,0
1750051,1750051,ON STATE LINE AT 7920 SB,,38.985214,-94.60822,,,,,,0
1750067,1750067,ON STATE LINE AT 84TH NORTHBOUND,,38.97648,-94.60821,,,,,,0
1750070,1750070,ON STATE LINE AT 8015 NORTHBOUND,,38.983417,-94.608184,,,,,,0
1750066,1750066,ON STATE LINE BTWN AT 85TH TERR & 85TH ST NB,,38.974291,-94.608107,,,,,,0
1750071,1750071,ON STATE LINE AT 79TH NB,,38.98521,-94.608066,,,,,,0
1750050,1750050,ON STATE LINE AT 79TH SOUTHBOUND,,38.987603,-94.608063,,,,,,0
1750049,1750049,ON STATE LINE BETWEEN 76TH & MEADOWLAKE SB,,38.990357,-94.608043,,,,,,0
1750048,1750048,ON STATE LINE AT 7532 STATE LINE SOUTHBOUND,,38.992249,-94.608024,,,,,,0
5100005,5100005,ON STATE LINE AT 88TH NORTHBOUND,,38.968486,-94.607989,,,,,,0
1750072,1750072,ON STATE LINE AT MEADOWLAKE TERR NORTHBOUND,,38.987588,-94.607937,,,,,,0
1750073,1750073,ON STATE LINE AT MEADOWLAKE NORTHBOUND,,38.989864,-94.607912,,,,,,0
571730,571730,ON STATE LINE BETWEEN BLUE RIDGE AND 133RD NB,,38.888819,-94.607905,,,,,,0
571729,571729,ON STATE LINE AT 135TH NORTHBOUND FARSIDE,,38.885731,-94.607823,,,,,,0
57171,57171,ON W 136TH AT STATE LINE ROAD WESTBOUND,,38.881483,-94.607818,,,,,,0
1420319,1420319,ON BARRY RD AT MARSTON EASTBOUND,,39.246213,-94.607564,,,,,,0
5600132,5600132,ON CARONDELET AT STATE LN WESTBOUND,,38.935204,-94.607422,,,,,,0
4700142,4700142,ON STATE LINE AT OLATHE BLVD SB,,39.054467,-94.607376,,,,,,0
5600095,5600095,ON CARONDELET AT STATE LINE EASTBOUND,,38.935117,-94.607373,,,,,,0
4700140,4700140,ON STATE LINE AT 39TH SOUTHBOUND,,39.057174,-94.60737,,,,,,0
1750074,1750074,ON 75TH AT STATE LINE EASTBOUND,,38.992897,-94.60736,,,,,,0
111614,111614,ON SW BLVD AT 31ST ST WESTBOUND,,39.072546,-94.607359,,,,,,0
390076,390076,ON 39TH AT STATE LINE WESTBOUND,,39.057401,-94.607172,,,,,,0
1420308,1420308,ON BARRY AT MARSTON WESTBOUND,,39.246456,-94.607146,,,,,,0
1231201,1231201,ON SW BLVD AT 31ST EASTBOUND,,39.07257,-94.607109,,,,,,0
540008,540008,ON WARD PKWY BETWEEN 85TH ST & 85TH TERR SB,,38.974246,-94.606906,,,,,,0
1750047,1750047,ON 75TH AT WYOMING WESTBOUND,,38.992984,-94.606781,,,,,,0
1562308,1562308,ON 103RD AT WATTS MILL EASTBOUND,,38.941952,-94.606656,,,,,,0
5100171,5100171,ON 89TH BETWEEN WARD PKWY AND STATE LINE WB,,38.967116,-94.606432,,,,,,0
390121,390121,ON 39TH AT BELL EASTBOUND,,39.057241,-94.606285,,,,,,0
512402,512402,ON WARD PKWY BETWEEN 85TH TERR & 86TH TERR SB,,38.972842,-94.606195,,,,,,0
5600096,5600096,ON CARONDELET AT BLDG A EASTBOUND,,38.935299,-94.605713,,,,,,0
571818,571818,ON W 135TH ST AT MADISON WESTBOUND FARSIDE,,38.881573,-94.605655,,,,,,0
5600131,5600131,ON CARONDELET AT BLDG A WESTBOUND,,38.935589,-94.605602,,,,,,0
5100168,5100168,ON WARD PKWY AT 87TH SOUTHBOUND,,38.970729,-94.605294,,,,,,0
1750061,1750061,ON WARD PKWY AT 89TH SOUTHBOUND,,38.967194,-94.606576,,,,,,0
5600091,5600091,ON 103RD AT 1120 W 103RD STREET WESTBOUND,,38.941919,-94.604143,,,,,,0
1200084,1200084,ON 12TH BTWN WYOMING & GENESSEE WESTBOUND,,39.100027,-94.60414,,,,,,0
1750076,1750076,ON 75TH AT WARD PKWY EASTBOUND,,38.992791,-94.603934,,,,,,0
1562309,1562309,ON 103RD AT MADISON WESTBOUND,,38.941806,-94.603928,,,,,,0
571731,571731,ON BLUE RIDGE AT INVERNESS DRIVE EASTBOUND FARSIDE,,38.890585,-94.603907,,,,,,0
9171,9171,ON 14TH AT GENESSEE ST EASTBOUND FARSIDE,,39.09786,-94.603751,,,,,,0
1200102,1200102,ON WYOMING AT 12TH NORTHBOUND,,39.100028,-94.603657,,,,,,0
390074,390074,ON 39TH AT WYOMING WESTBOUND,,39.057257,-94.603556,,,,,,0
1750045,1750045,ON 75TH AT WARD PKWY WESTBOUND,,38.992853,-94.603343,,,,,,0
123003,123003,ON SW BLVD AT 29TH ST NB,,39.075409,-94.603066,,,,,,0
123002,123002,ON SW BLVD AT 29TH ST SB,,39.07567,-94.602949,,,,,,0
1200103,1200103,ON 12TH STREET AT LIBERTY EASTBOUND,,39.100466,-94.602474,,,,,,0
390122,390122,ON 39TH BETWEEN TERRECE & MERCIER EB,,39.057102,-94.602108,,,,,,0
85172,85172,ON 85TH AT MADISON/BELLEVIEW WESTBOUND,,38.974513,-94.60162,,,,,,0
5600130,5600130,ON CARONDELET SHELTER SOUTHBOUND,,38.935638,-94.6016,,,,,,0
1562305,1562305,ON CARONDELET AT 621 NORTHBOUND,,38.935782,-94.60146,,,,,,0
85192,85192,ON 85TH AT MADISON EASTBOUND NEARSIDE,,38.974393,-94.601176,,,,,,0
1750043,1750043,ON 75TH AT MADISON WESTBOUND,,38.992758,-94.601028,,,,,,0
1750077,1750077,ON 75TH AT MADISON EASTBOUND,,38.992668,-94.600888,,,,,,0
571728,571728,ON W 135TH AT WASHINGTON/INVERNESS DR WESTBOUND,,38.883279,-94.600573,,,,,,0
5600134,5600134,ON 103RD AT 601 W 103RD STREET EASTBOUN,,38.941664,-94.600454,,,,,,0
11161,11161,ON SW BLVD AT 27TH NORTHBOUND NEARSIDE,,39.078742,-94.600055,,,,,,0
2220046,2220046,ON SOUTHWEST BLVD AT 27TH ST SOUTHBOUND,,39.078953,-94.600034,,,,,,0
390123,390123,ON 39TH AT ROANOKE EASTBOUND,,39.057025,-94.599955,,,,,,0
5600129,5600129,ON CARONDELET AT JEFFERSON WESTBOUND,,38.936927,-94.599726,,,,,,0
4700135,4700135,ON 39TH AT ROANOKE WESTBOUND,,39.05715,-94.599703,,,,,,0
1562306,1562306,ON CARONDELET AT JEFFERSON EASTBOUND,,38.936782,-94.59969,,,,,,0
540006,540006,ON 85TH ST AT SUMMIT WESTBOUND NEARSIDE,,38.974428,-94.599624,,,,,,0
540010,540010,ON 85TH ST AT SUMMIT EASTBOUND FARSIDE,,38.974318,-94.599554,,,,,,0
290132,290132,ON BARRY RD AT HICKORY EASTBOUND,,39.246267,-94.598509,,,,,,0
1420307,1420307,ON BARRY AT HICKORY WESTBOUND,,39.246613,-94.598204,,,,,,0
5600128,5600128,ON CARONDELET AT WASHINGTON WB,,38.936765,-94.597697,,,,,,0
5600135,5600135,ON 103RD AT 555 W 103RD STREET EASTBOUND,,38.941535,-94.597469,,,,,,0
1750078,1750078,ON 75TH AT JEFFERSON EASTBOUND,,38.992515,-94.597424,,,,,,0
5600089,5600089,ON 103RD AT 400 W 103RD ST WESTBOUND,,38.941621,-94.597344,,,,,,0
1750042,1750042,ON 75TH AT JEFFERSON WESTBOUND,,38.992609,-94.597268,,,,,,0
1562307,1562307,ON CARONDELET AT WORNALL EASTBOUND,,38.936646,-94.596996,,,,,,0
5610056,5610056,ON WORNALL AT 106TH SOUTHBOUND,,38.935816,-94.596993,,,,,,0
111601,111601,ON SW BLVD AT 25TH SOUTHBOUND,,39.082497,-94.596881,,,,,,0
5610011,5610011,ON WORNALL AT 106TH NORTHBOUND,,38.936097,-94.596836,,,,,,0
1420320,1420320,ON BARRY RD BETWEEN MERCIER AND THOMAS MEYER EB,,39.246232,-94.596825,,,,,,0
57172,57172,ON 135TH AT WORNALL WESTBOUND,,38.883023,-94.596766,,,,,,0
111602,111602,ON SOUTHWEST BLVD AT 25TH NORTHBOUND,,39.082461,-94.596746,,,,,,0
5600088,5600088,ON WORNALL AT 101ST TERRACE SOUTHBOUND,,38.944485,-94.596541,,,,,,0
5610057,5610057,ON WORNALL AT 107TH SOUTHBOUND FARSIDE,,38.934043,-94.596517,,,,,,0
5600138,5600138,ON WORNALL AT 100TH KINGSWOOD MANOR SOUTHBOUND,,38.946952,-94.596442,,,,,,0
5600137,5600137,ON WORNALL AT 101ST TERRACE NORTHBOUND,,38.944529,-94.59644,,,,,,0
5600085,5600085,ON WORNALL AT 99TH SOUTHBOUND,,38.948684,-94.596356,,,,,,0
5600139,5600139,ON WORNALL AT 100TH TERRACE NORTHBOUND,,38.946398,-94.596354,,,,,,0
5600140,5600140,ON WORNALL AT 10000 WORNALL KINGSWOOD MANOR NB,,38.947832,-94.596281,,,,,,0
5610010,5610010,ON WORNALL AT 107TH NORTHBOUND,,38.933873,-94.59628,,,,,,0
5600084,5600084,ON WORNALL AT 98TH SOUTHBOUND,,38.950745,-94.596204,,,,,,0
5600141,5600141,ON WORNALL AT 99TH NORTHBOUND,,38.948726,-94.596203,,,,,,0
1231202,1231202,ON 25TH ST AT BELLEVIEW WB,,39.0824,-94.596145,,,,,,0
1562310,1562310,ON WORNALL AT 97TH TER SOUTHBOUND,,38.951683,-94.596138,,,,,,0
5600142,5600142,ON WORNALL AT 98TH NB,,38.95056,-94.596069,,,,,,0
5600080,5600080,ON WORNALL AT BANNISTER SOUTHBOUND,,38.956269,-94.596058,,,,,,0
5600081,5600081,ON WORNALL AT 96TH TERR SB,,38.953528,-94.596007,,,,,,0
5600099,5600099,ON WORNALL AT BRIDLSPUR TERR SOUTHBOUND,,38.933046,-94.596001,,,,,,0
1562501,1562501,ON WORNALL AT 9450 WORNALL RD SOUTHBOUND,,38.957685,-94.59599,,,,,,0
5600143,5600143,ON WORNALL AT 97TH NORTHBOUND,,38.952348,-94.595965,,,,,,0
390069,390069,ON 39TH AT SUMMIT WESTBOUND,,39.056988,-94.595954,,,,,,0
5700134,5700134,ON WORNALL AT S  WARD PKWY SOUTHBOUND,,38.958987,-94.595871,,,,,,0
5600144,5600144,ON WORNALL AT 96TH TERRACE NORTHBOUND,,38.95359,-94.59587,,,,,,0
5610008,5610008,ON WORNALL AT BRIDLESPUR NORTHBOUND,,38.933145,-94.59587,,,,,,0
4700071,4700071,ON 39TH AT SUMMIT EASTBOUND,,39.056881,-94.595834,,,,,,0
5600145,5600145,ON WORNALL AT BANNISTER NORTHBOUND,,38.957497,-94.595643,,,,,,0
5600077,5600077,ON WORNALL AT 91ST SOUTHBOUND,,38.963354,-94.595632,,,,,,0
571727,571727,ON WORNALL AT 133RD ST SOUTHBOUND,,38.886693,-94.595587,,,,,,0
5600076,5600076,ON WORNALL AT 90TH SOUTHBOUND,,38.965404,-94.595555,,,,,,0
5600148,5600148,ON WORNALL AT 91ST NORTHBOUND,,38.963631,-94.59552,,,,,,0
1562502,1562502,ON WORNALL AT 108TH TER NORTHBOUND,,38.932373,-94.595506,,,,,,0
5600075,5600075,ON WORNALL AT 89TH SOUTHBOUND NEARSIDE,,38.966995,-94.595491,,,,,,0
5600149,5600149,ON WORNALL AT 90TH NORTHBOUND,,38.965264,-94.595456,,,,,,0
5600074,5600074,ON WORNALL AT 88TH SOUTHBOUND,,38.969123,-94.595409,,,,,,0
5600150,5600150,ON WORNALL AT 89TH NORTHBOUND NEARSIDE,,38.966835,-94.595361,,,,,,0
5610059,5610059,ON WORNALL AT 108TH TERR SOUTHBOUND,,38.931724,-94.59532,,,,,,0
5600073,5600073,ON WORNALL AT 87TH SOUTHBOUND,,38.971134,-94.59531,,,,,,0
571726,571726,ON WORNALL AT BLUE RIDGE BLVD SOUTHBOUND,,38.890309,-94.5953,,,,,,0
540001,540001,ON 85TH ST AT WORNALL WESTBOUND FARSIDE,,38.974287,-94.595285,,,,,,0
5600146,5600146,ON WORNALL AT WARD PARKWAY NORTHBOUND,,38.959329,-94.595281,,,,,,0
5600151,5600151,ON WORNALL AT 88TH NORTHBOUND,,38.969204,-94.595268,,,,,,0
540011,540011,ON 85TH ST AT WORNALL EASTBOUND NEARSIDE,,38.97407,-94.595267,,,,,,0
5600152,5600152,ON WORNALL AT SWEENEY NORTHBOUND,,38.97056,-94.595229,,,,,,0
5600071,5600071,ON WORNALL AT 85TH SOUTHBOUND NEARSIDE,,38.974311,-94.595168,,,,,,0
571732,571732,ON WORNALL AT BLUE RIDGE BLVD NORTHBOUND FARSIDE,,38.890329,-94.595161,,,,,,0
5600070,5600070,ON WORNALL AT 84TH TERR SOUTHBOUND,,38.975283,-94.595117,,,,,,0
5600078,5600078,ON WORNALL AT 91ST TERRACE SOUTHBOUND,,38.961868,-94.595102,,,,,,0
5600147,5600147,ON WORNALL AT 91ST TERRACE NORTHBOUND,,38.962159,-94.595095,,,,,,0
5600069,5600069,ON WORNALL AT 84TH SOUTHBOUND,,38.976089,-94.595085,,,,,,0
571725,571725,ON WORNALL AT WOODBRIDGE LANE SOUTHBOUND FARSIDE,,38.893785,-94.595052,,,,,,0
5600068,5600068,ON WORNALL AT 83RD TERRACE SOUTHBOUND,,38.976984,-94.595035,,,,,,0
5600154,5600154,ON WORNALL AT 85TH NORTHBOUND,,38.974049,-94.595025,,,,,,0
57181,57181,ON WORNALL AT 84TH TERR NORTHBOUND,,38.975413,-94.594968,,,,,,0
5600067,5600067,ON WORNALL AT 82ND SOUTHBOUND,,38.979368,-94.594927,,,,,,0
571733,571733,ON WORNALL AT WOODBRIDGE LANE NORTHBOUND,,38.893839,-94.594911,,,,,,0
5600157,5600157,ON WORNALL AT 83RD TERRACE NORTHBOUND,,38.97711,-94.59488,,,,,,0
5600158,5600158,ON WORNALL AT 82ND NORTHBOUND NEARSIDE,,38.979525,-94.59476,,,,,,0
571724,571724,ON WORNALL AT 125TH ST SOUTHBOUND,,38.898273,-94.594727,,,,,,0
5600065,5600065,ON WORNALL AT 80TH SOUTHBOUND NEARSIDE,,38.983126,-94.594722,,,,,,0
5600159,5600159,ON WORNALL AT 81ST NORTHBOUND NEARSIDE,,38.98125,-94.594667,,,,,,0
5600064,5600064,ON WORNALL AT 79TH SOUTHBOUND FARSIDE,,38.984842,-94.594641,,,,,,0
111613,111613,ON SW BLVD AT MADISON SOUTHBOUND,,39.084327,-94.594599,,,,,,0
5600160,5600160,ON WORNALL AT 80TH NORTHBOUND NEARSIDE,,38.983138,-94.594579,,,,,,0
571734,571734,ON WORNALL AT 126TH NORTHBOUND NEARSIDE,,38.898689,-94.594558,,,,,,0
5600063,5600063,ON WORNALL AT 78TH SOUTHBOUND,,38.986995,-94.594521,,,,,,0
5600161,5600161,ON WORNALL AT 79TH NORTHBOUND NEARSIDE,,38.984897,-94.594501,,,,,,0
5600062,5600062,ON WORNALL AT 77TH SOUTHBOUND NEARSIDE,,38.988799,-94.59443,,,,,,0
271601,271601,ON SW BLVD BETWEEN MADISON AND SUMMIT EASTBOUND,,39.084291,-94.594427,,,,,,0
5600162,5600162,ON WORNALL AT 78TH NORTHBOUND,,38.986854,-94.594422,,,,,,0
571723,571723,ON WORNALL AT 124TH ST SOUTHBOUND FARSIDE,,38.902573,-94.59442,,,,,,0
5600061,5600061,ON WORNALL BETWEEN 75TH AND 76TH SOUTHBOUND,,38.991811,-94.594372,,,,,,0
1420020,1420020,ON BARRY RD AT THOMAS MEYER WB,,39.246591,-94.594359,,,,,,0
5600163,5600163,ON WORNALL AT 77TH NORTHBOUND NEARSIDE,,38.988617,-94.594295,,,,,,0
571735,571735,ON WORNALL AT 124TH ST NORTHBOUND FARSIDE,,38.9031,-94.594237,,,,,,0
5600164,5600164,ON WORNALL BETWEEN 76TH AND 75TH NORTHBOUND,,38.991891,-94.594235,,,,,,0
5600058,5600058,ON WORNALL AT 73RD ST SB,,38.996108,-94.594145,,,,,,0
5610060,5610060,ON WORNALL AT 109TH ST SOUTHBOUND,,38.929365,-94.594104,,,,,,0
5600167,5600167,ON WORNALL AT 73RD TERRACE NB,,38.994966,-94.594087,,,,,,0
5600168,5600168,ON WORNALL AT 73RD NB,,38.995827,-94.594014,,,,,,0
5610007,5610007,ON WORNALL AT COUNTRY LANE NORTHBOUND,,38.929283,-94.593911,,,,,,0
5600169,5600169,ON WORNALL AT 72ND NB,,38.997689,-94.593889,,,,,,0
5600057,5600057,ON WORNALL AT GREGORY SOUTHBOUND,,39.00003,-94.593866,,,,,,0
56001,56001,ON BROADWAY AT 74TH TERR SB,W 74TH TER & WYANDOTTE ST,38.993205,-94.593063,,,,,,0
4700118,4700118,ON SUMMIT AT CESAR CHAVEZ SOUTHBOUND,,39.086009,-94.593855,,,,,,0
571722,571722,ON WORNALL AT SANTA FE TRAIL SOUTHBOUND,,38.910023,-94.593838,,,,,,0
2220026,2220026,ON 25TH AT SUMMIT WESTBOUND,,39.082342,-94.593789,,,,,,0
5600170,5600170,ON WORNALL AT GREGORY NB,,38.999508,-94.593784,,,,,,0
1750040,1750040,ON 75TH AT BROADWAY WESTBOUND,,38.992384,-94.593737,,,,,,0
111612,111612,ON SUMMIT AT WEST PENNWAY SOUTHBOUND NEARSIDE,,39.087816,-94.593726,,,,,,0
571736,571736,ON WORNALL AT SANTA FE NORTHBOUND NEARSIDE,,38.909781,-94.593718,,,,,,0
1750080,1750080,ON 75TH AT BROADWAY EB,,38.992282,-94.593703,,,,,,0
2220028,2220028,ON SUMMIT AT CESAR CHAVEZ NORTHBOUND,,39.085689,-94.593702,,,,,,0
5600056,5600056,ON WORNALL AT 70TH SB,,39.001945,-94.593698,,,,,,0
111611,111611,ON SUMMIT AT 20TH SOUTHBOUND NEARSIDE,,39.089501,-94.593635,,,,,,0
11162,11162,ON SUMMIT AT WEST PENNWAY NORTHBOUND NEARSIDE,,39.087494,-94.593606,,,,,,0
5600171,5600171,ON WORNALL AT 70TH NB,,39.001779,-94.593583,,,,,,0
57173,57173,ON WORNALL AT CENTRAL SOUTHBOUND - AVILA COLLEGE,,38.913426,-94.593579,,,,,,0
5600055,5600055,ON WORNALL AT 68TH TERRACE SB,,39.00485,-94.593526,,,,,,0
11163,11163,ON SUMMIT AT 20TH NORTHBOUND,,39.089315,-94.593507,,,,,,0
57174,57174,ON WORNALL AT CENTRAL NORTHBOUND - AVILA COLLEGE,,38.913024,-94.59347,,,,,,0
5610006,5610006,ON WORNALL AT 109TH TERR  NORTHBOUND,,38.928335,-94.593432,,,,,,0
270008,270008,ON SUMMIT AT 17TH ST SOUTHBOUND,,39.093168,-94.593425,,,,,,0
5600172,5600172,ON WORNALL AT 68TH TERRACE NB,,39.004687,-94.593407,,,,,,0
5600054,5600054,ON WORNALL AT 67TH TERRACE SB,,39.006764,-94.593399,,,,,,0
571721,571721,ON WORNALL AT MINOR DR SOUTHBOUND,,38.91622,-94.593359,,,,,,0
5600053,5600053,ON WORNALL AT 66TH TERRACE SB,,39.00827,-94.593326,,,,,,0
270006,270006,ON SUMMIT AT 17TH ST NB,,39.092955,-94.593304,,,,,,0
5610061,5610061,ON WORNALL AT 109TH TERR SOUTHBOUND,,38.92776,-94.593294,,,,,,0
5600173,5600173,ON WORNALL AT 67TH TERRACE NB,,39.006598,-94.593284,,,,,,0
5600052,5600052,ON WORNALL AT 65TH SB,,39.0101,-94.593245,,,,,,0
5600051,5600051,ON WORNALL AT MEYER SB,,39.012199,-94.593239,,,,,,0
571738,571738,ON WORNALL AT MINOR NORTHBOUND NEARSIDE,,38.916307,-94.593214,,,,,,0
5600174,5600174,ON WORNALL AT 66TH TERRACE NB,,39.008107,-94.593207,,,,,,0
390126,390126,ON 39TH AT PENNSYLVANIA EASTBOUND,,39.056771,-94.593194,,,,,,0
5600176,5600176,ON WORNALL AT MEYER NB,,39.012262,-94.593134,,,,,,0
390068,390068,ON 39TH AT PENNSYLVANIA WESTBOUND,,39.056875,-94.592943,,,,,,0
5100109,5100109,ON 25TH BETWEEN SUMMIT AND JEFFERSON EASTBOUND,,39.082209,-94.592896,,,,,,0
5610005,5610005,ON RED BRIDGE AT WORNALL WESTBOUND,,38.926466,-94.592519,,,,,,0
1200104,1200104,ON 12TH STREET AT JEFFERSON EASTBOUND,,39.10022,-94.592388,,,,,,0
1200083,1200083,ON 12TH AT JEFFERSON WESTBOUND,,39.100323,-94.592272,,,,,,0
511301,511301,ON 25TH ST AT JEFFERSON WB,,39.082288,-94.592252,,,,,,0
562305,562305,ON BROOKSIDE AT MEYER SB,,39.012568,-94.592221,,,,,,0
562307,562307,ON BROOKSIDE AT MEYER NB,,39.012565,-94.592119,,,,,,0
1200080,1200080,ON JEFFERSON AT 9TH NORTHBOUND,,39.103832,-94.592002,,,,,,0
1750081,1750081,ON 75TH AT WYANDOTTE EASTBOUND,,38.992196,-94.591989,,,,,,0
4700044,4700044,ON 47TH AT BROADWAY WESTBOUND FARSIDE,,39.042437,-94.591758,,,,,,0
1750039,1750039,ON 75TH AT WYANDOTTE WESTBOUND,,38.992301,-94.591748,,,,,,0
512401,512401,ON WEST PENNWAY AT 25TH SOUTHBOUND,,39.082361,-94.591715,,,,,,0
5600050,5600050,ON BROOKSIDE AT 63RD SB,,39.013924,-94.59162,,,,,,0
40171,40171,ON WEST PENNWAY AT PERSHING NORTHBOUND FARSIDE,,39.082631,-94.591551,,,,,,0
5600178,5600178,ON BROOKSIDE AT 63RD NB,,39.013937,-94.591503,,,,,,0
5610062,5610062,ON RED BRIDGE AT WALNUT EB,,38.926321,-94.591492,,,,,,0
1200082,1200082,ON PENNSYLVANIA AT 12TH SOUTHBOUND,,39.10032,-94.591243,,,,,,0
5710090,5710090,ON 63RD AT BROOKSIDE EASTBOUND,,39.013981,-94.591216,,,,,,0
1200121,1200121,ON PENNSYLVANIA AT 11TH SOUTHBOUND,,39.101182,-94.591196,,,,,,0
3100044,3100044,ON PENNSYLVANIA AT 32ND NORTHBOUND,,39.069717,-94.591181,,,,,,0
3101,3101,ON PENNSYLVANIA AT 31ST NB,,39.070699,-94.591126,,,,,,0
1200119,1200119,ON PENNSYLVANIA AT 9TH SOUTHBOUND,,39.103701,-94.591055,,,,,,0
1200077,1200077,ON 11TH AT PENNSYLVANIA WESTBOUND,,39.101134,-94.591012,,,,,,0
390080,390080,ON 39TH AT BROADWAY WESTBOUND,,39.056801,-94.59092,,,,,,0
390114,390114,ON 39TH AT BROADWAY EASTBOUND,,39.056693,-94.590887,,,,,,0
5600049,5600049,ON BROOKSIDE AT 62ND ST SB,,39.015624,-94.590862,,,,,,0
390081,390081,ON BROADWAY AT 39TH SOUTHBOUND,,39.056607,-94.590855,,,,,,0
5100122,5100122,ON BROADWAY AT WESTPORT SOUTHBOUND,,39.053494,-94.590763,,,,,,0
5600179,5600179,ON BROOKSIDE AT 62ND NB,,39.015848,-94.590632,,,,,,0
5100118,5100118,ON BROADWAY AT 37TH SOUTHBOUND,,39.060442,-94.590628,,,,,,0
540012,540012,ON 85TH ST AT MAIN EB,,38.973971,-94.590587,,,,,,0
5100117,5100117,ON BROADWAY AT VALENTINE SOUTHBOUND,,39.061366,-94.590569,,,,,,0
5700047,5700047,ON 47TH AT CENTRAL EASTBOUND FARSIDE,,39.042155,-94.590482,,,,,,0
5600105,5600105,ON RED BRIDGE AT GRAND EASTBOUND,,38.926255,-94.590468,,,,,,0
5100115,5100115,ON BROADWAY AT ARMOUR SOUTHBOUND,,39.064026,-94.590409,,,,,,0
5710129,5710129,ON 85TH AT MAIN WB,,38.974075,-94.590315,,,,,,0
5100113,5100113,ON BROADWAY AT LINWOOD SOUTHBOUND,,39.067598,-94.590215,,,,,,0
5610004,5610004,ON RED BRIDGE AT GRAND WESTBOUND,,38.926364,-94.590178,,,,,,0
5100112,5100112,ON BROADWAY AT 32ND SOUTHBOUND,,39.069452,-94.590097,,,,,,0
11164,11164,ON WASHINGTON AT 14TH NORTHBOUND,,39.097934,-94.59008,,,,,,0
3100999,3100999,ON BROADWAY BETWEEN 31ST AND 32ND SOUTHBOUND,,39.070445,-94.590053,,,,,,0
571720,571720,ON MINOR AT 115TH SOUTHBOUND,,38.919086,-94.590046,,,,,,0
1010200,1010200,ON 12TH AT WASHINGTON WESTBOUND,,39.100218,-94.589931,,,,,,0
571739,571739,ON MINOR AT 115TH NORTHBOUND,,38.918898,-94.589927,,,,,,0
5600048,5600048,ON BROOKSIDE AT 61ST SB,,39.017572,-94.589926,,,,,,0
1200076,1200076,ON 11TH AT WASHINGTON WESTBOUND NEARSIDE,,39.101107,-94.589885,,,,,,0
5600180,5600180,ON BROOKSIDE AT 61ST NB,,39.017598,-94.589777,,,,,,0
3100056,3100056,ON 31ST AT BROADWAY EASTBOUND FARSIDE,,39.071115,-94.589693,,,,,,0
57101,57101,ON 75TH AT MAIN EB,,38.992097,-94.589652,,,,,,0
1750038,1750038,ON 75TH AT MAIN WESTBOUND,,38.992192,-94.589444,,,,,,0
1550056,1550056,ON 47TH AT WYANDOTTE WESTBOUND NEARSIDE,,39.042347,-94.589156,,,,,,0
5100068,5100068,ON PERSHING AT BROADWAY EASTBOUND,,39.083307,-94.589114,,,,,,0
1200122,1200122,ON 12TH AT WASHINGTON EASTBOUND MIDBLOCK,,39.100072,-94.588686,,,,,,0
390128,390128,ON 39TH AT WYANDOTTE EASTBOUND,,39.056611,-94.588564,,,,,,0
512308,512308,ON PERSHING AT BROADWAY WESTBOUND NEARSIDE,,39.083467,-94.588509,,,,,,0
571719,571719,ON OAK AT MINOR SOUTHBOUND,,38.921645,-94.588498,,,,,,0
5700152,5700152,ON 63RD AT MAIN EASTBOUND,,39.013832,-94.588497,,,,,,0
51153,51153,ON BROADWAY AT 12TH ST SB,,39.100206,-94.588484,,,,,,0
5600047,5600047,ON BROOKSIDE AT 59TH SB,,39.020336,-94.58847,,,,,,0
5610001,5610001,ON OAK AT MINOR NORTHBOUND,,38.921687,-94.588374,,,,,,0
5100208,5100208,ON BROADWAY AT 43RD SOUTHBOUND,,39.049467,-94.588346,,,,,,0
571718,571718,ON OAK AT 112TH SOUTHBOUND FARSIDE,,38.92398,-94.588342,,,,,,0
390066,390066,ON 39TH AT WYANDOTTE WESTBOUND,,39.056712,-94.588327,,,,,,0
6300042,6300042,ON 63RD AT MAIN WESTBOUND,,39.013897,-94.588279,,,,,,0
1010133,1010133,ON BROADWAY AT 8TH SOUTHBOUND,,39.104747,-94.588277,,,,,,0
5600181,5600181,ON BROOKSIDE AT 59TH NB,,39.020292,-94.588213,,,,,,0
1562300,1562300,ON OAK AT 112TH NORTHBOUND,,38.924036,-94.588194,,,,,,0
571717,571717,ON OAK AT RED BRIDGE SOUTHBOUND FARSIDE,,38.925769,-94.588183,,,,,,0
556161,556161,ON W 47TH AT JC NICHOLS PARKWAY EASTBOUND NEARSIDE,,39.042088,-94.588148,,,,,,0
1060009,1060009,ON BROADWAY AT 8TH NORTHBOUND FARSIDE,,39.104803,-94.588136,,,,,,0
5610002,5610002,ON OAK AT RED BRIDGE NORTHBOUND,,38.925973,-94.58809,,,,,,0
58047,58047,ON JC NICHOLS PKWY BETWEEN WARD PKY AND 47TH NB,,39.041024,-94.588008,,,,,,0
540013,540013,ON 85TH ST AT OAK/ SLEEPY HOLLOW EASTBOUND,,38.973849,-94.58752,,,,,,0
25001,25001,ON 12TH BETWEEN BROADWAY AND CENTRAL EASTBOUND,,39.100027,-94.587482,,,,,,0
5700167,5700167,ON 75TH AT GRAND WESTBOUND NEARSIDE,,38.992097,-94.587431,,,,,,0
5600182,5600182,ON BROOKSIDE AT 58TH NB,,39.0217,-94.58743,,,,,,0
5710127,5710127,ON 85TH AT OAK / SLEEPY HOLLOW WESTBOUND,,38.973951,-94.587398,,,,,,0
5700199,5700199,ON 75TH AT GRAND EASTBOUND,,38.991986,-94.587357,,,,,,0
5600046,5600046,ON BROOKSIDE AT 58TH SB,,39.022426,-94.587184,,,,,,0
1010004,1010004,ON 11TH AT CENTRAL WESTBOUND,,39.100989,-94.586833,,,,,,0
5600036,5600036,ON MAIN AT 47TH SOUTHBOUND,US-56 E & BROOKSIDE BLVD,39.042096,-94.586907,,,,,,0
5600045,5600045,ON BROOKSIDE AT 57TH SB,,39.024072,-94.586428,,,,,,0
5600183,5600183,ON BROOKSIDE AT 57TH NB,,39.023901,-94.586363,,,,,,0
1730003,1730003,ON 12TH BETWEEN CENTRAL AND WYANDOTTE EASTBOUND,,39.099994,-94.586299,,,,,,0
4700041,4700041,ON CLEAVER II BLVD AT MAIN WESTBOUND,,39.042254,-94.586276,,,,,,0
2850084,2850084,ON 39TH AT MAIN NEARSIDE EASTBOUND,,39.056537,-94.586229,,,,,,0
5700153,5700153,ON 63RD AT MORNINGSIDE EASTBOUND,,39.013721,-94.586213,,,,,,0
5710027,5710027,ON 63RD AT MORNINGSIDE WESTBOUND,,39.013792,-94.585998,,,,,,0
390064,390064,ON 39TH AT MAIN WESTBOUND,,39.056635,-94.58599,,,,,,0
17301,17301,ON WYANDOTTE BETWEEN 11TH AND 12TH SOUTHBOUND,,39.100544,-94.585617,,,,,,0
5600044,5600044,ON BROOKSIDE AT 56TH SB,,39.025853,-94.585612,,,,,,0
5600184,5600184,ON BROOKSIDE AT 56TH NB,,39.02567,-94.585565,,,,,,0
3100040,3100040,ON 31ST AT MAIN WESTBOUND FARSIDE,,39.071085,-94.585482,,,,,,0
142001,142001,ON BARRY RD AT N BROADWAY EB,,39.246252,-94.585422,,,,,,0
1420306,1420306,ON BARRY RD AT N BROADWAY WESTBOUND,,39.246515,-94.585405,,,,,,0
23530,23530,ON ARMOUR AT MAIN EASTBOUND FARSIDE,,39.063721,-94.585366,,,,,,0
3100058,3100058,ON 31ST AT MAIN EASTBOUND,,39.070965,-94.585172,,,,,,0
1750084,1750084,ON 75TH AT OAK EASTBOUND,,38.991899,-94.585071,,,,,,0
5600043,5600043,ON BROOKSIDE AT 55TH SB,,39.027446,-94.584929,,,,,,0
1750036,1750036,ON 75TH AT OAK WESTBOUND,,38.991985,-94.584798,,,,,,0
5600185,5600185,ON BROOKSIDE AT 55TH NB,,39.027461,-94.584795,,,,,,0
562302,562302,ON MAIN AT GRAND NORTHBOUND FARSIDE,,39.076656,-94.584726,,,,,,0
270007,270007,ON MAIN AT 27TH STREET NORTHBOUND NEARSIDE,,39.078115,-94.584661,,,,,,0
5600042,5600042,ON BROOKSIDE AT 54TH SB,,39.029319,-94.584525,,,,,,0
1601,1601,DELAWARE  (4TH & DELWARE),,39.108848,-94.584417,,,,,,0
5600186,5600186,ON BROOKSIDE AT 54TH NB,,39.029081,-94.584392,,,,,,0
272701,272701,ON PERSHING AT MAIN WESTBOUND FS,,39.084123,-94.584371,,,,,,0
5600040,5600040,ON BROOKSIDE AT 51ST SB,,39.034696,-94.584317,,,,,,0
5600041,5600041,ON BROOKSIDE AT 52ND SB,,39.031853,-94.584212,,,,,,0
5600188,5600188,ON BROOKSIDE AT 52ND NORTHBOUND,,39.032401,-94.584112,,,,,,0
1608,1608,UNION STATION (PERSHING & MAIN ST),,39.084903,-94.584179,,,,,,0
39001,39001,ON 39TH ST AT WARWICK EB,,39.056453,-94.583906,,,,,,0
6300058,6300058,ON 63RD AT OAK EASTBOUND,,39.013609,-94.583905,,,,,,0
6300040,6300040,ON 63RD AT OAK WESTBOUND,,39.013691,-94.583901,,,,,,0
2700092,2700092,ON PERSHING AT MAIN EB,,39.083933,-94.583887,,,,,,0
1607,1607,CROSSROADS (19TH & MAIN ST),,39.090282,-94.58372,,,,,,0
390062,390062,ON 39TH AT WARWICK WESTBOUND,,39.056544,-94.583662,,,,,,0
25002,25002,ON 12TH BETWEEN BALTIMORE AND MAIN EASTBOUND,,39.09991,-94.583611,,,,,,0
1609,1609,CROSSROADS (19TH & MAIN ST),,39.09058,-94.583569,,,,,,0
1606,1606,KAUFFMAN CENTER (16TH & MAIN ST),,39.094329,-94.58353,,,,,,0
1605,1605,POWER & LIGHT (14TH & MAIN ST),,39.096872,-94.583399,,,,,,0
1610,1610,KAUFFMAN CENTER (16TH & MAIN ST),,39.094764,-94.583375,,,,,,0
4700039,4700039,ON CLEAVER II BLVD AT OAK WESTBOUND,,39.042144,-94.583365,,,,,,0
1604,1604,METRO CENTER (12TH & MAIN ST),,39.099829,-94.583256,,,,,,0
1611,1611,POWER & LIGHT (14TH & MAIN ST),,39.097126,-94.583248,,,,,,0
2800202,2800202,ON GRAND AT 26TH SOUTHBOUND,,39.079504,-94.583231,,,,,,0
1602,1602,NORTH LOOP (7TH & MAIN ST),,39.105236,-94.583146,,,,,,0
1603,1603,LIBRARY (9TH & MAIN ST),,39.10305,-94.583139,,,,,,0
1612,1612,METRO CENTER (12TH & MAIN ST),,39.100125,-94.583101,,,,,,0
5500104,5500104,ON GRAND AT 26TH NORTHBOUND NEARSIDE,,39.07932,-94.583096,,,,,,0
1613,1613,LIBRARY (9TH & MAIN ST),,39.103362,-94.583036,,,,,,0
25225,25225,ON 11TH/PETTICOAT LANE AT MAIN WESTBOUND,,39.101181,-94.58297,,,,,,0
3100039,3100039,ON 31ST AT GRAND WESTBOUND,,39.071002,-94.582902,,,,,,0
1614,1614,NORTH LOOP (7TH & MAIN ST),MAIN ST & 7TH ST,39.105249,-94.582915,,,,,,0
4700167,4700167,ON CLEAVER II BLVD AT OAK EASTBOUND,,39.041922,-94.582451,,,,,,0
85197,85197,ON 27TH AT WARWICK EASTBOUND,,39.07807,-94.582151,,,,,,0
5700109,5700109,ON GRAND AT PERSHING CROWN CENTER SHOPS SB,,39.083739,-94.58187,,,,,,0
5400071,5400071,ON 27TH AT WARWICK WESTBOUND,,39.078167,-94.581863,,,,,,0
1615,1615,CITY MARKET (5TH & WALNUT ST),,39.108477,-94.581756,,,,,,0
6300059,6300059,ON 63RD AT CHERRY EASTBOUND,,39.013491,-94.58167,,,,,,0
1600,1600,RIVER MARKET (3RD & GRAND),,39.110246,-94.581659,,,,,,0
2220019,2220019,ON GRAND AT 22ND SOUTHBOUND,,39.086449,-94.581633,,,,,,0
290073,290073,ON GRAND AT PERSHING FARSIDE NORTHBOUND,,39.084558,-94.581617,,,,,,0
562309,562309,ON GRAND ACROSS FROM CROWN CTR SHOPS NB MB,,39.083402,-94.581604,,,,,,0
290074,290074,ON GRAND AT 22ND NORTHBOUND NEARSIDE,,39.085939,-94.58152,,,,,,0
272505,272505,ON PERSHING BETWEEN MCGEE & GRAND WB,,39.084235,-94.581516,,,,,,0
2800195,2800195,ON GRAND AT 19TH SOUTHBOUND FARSIDE,,39.090168,-94.581469,,,,,,0
27161,27161,ON E PERSHING AT GRAND EASTBOUND FARSIDE,,39.083871,-94.581449,,,,,,0
3100059,3100059,ON 31ST AT MCGEE EASTBOUND,,39.070833,-94.581367,,,,,,0
290077,290077,ON GRAND AT 19TH NORTHBOUND,,39.089983,-94.581339,,,,,,0
2800191,2800191,ON GRAND AT 16TH SOUTHBOUND FARSIDE,,39.094203,-94.581265,,,,,,0
1080173,1080173,ON GRAND AT 17TH NORTHBOUND FARSIDE,,39.093738,-94.581154,,,,,,0
3100038,3100038,ON 31ST AT MCGEE WESTBOUND,,39.070968,-94.581096,,,,,,0
33,33,ON GRAND BLVD AT 3RD SOUTHBOUND,,39.11041,-94.581069,,,,,,0
290091,290091,ON GRAND AT 12TH SOUTHBOUND,,39.099025,-94.581015,,,,,,0
3,3,ON GRAND AT 3RD METROCENTER NORTHBOUND,,39.110465,-94.580944,,,,,,0
290053,290053,ON GRAND AT 11TH SOUTHBOUND NEARSIDE,,39.101158,-94.580901,,,,,,0
5400064,5400064,ON GILLHAM AT ARMOUR NORTHBOUND,,39.064103,-94.580887,,,,,,0
1350043,1350043,ON BURLINGTON AT E 10TH AVE SOUTHBOUND,,39.126742,-94.58086,,,,,,0
290054,290054,ON GRAND AT 12TH NORTHBOUND,,39.09978,-94.58085,,,,,,0
5300086,5300086,ON ARMOUR AT GILLHAM EASTBOUND,,39.063539,-94.580839,,,,,,0
3700062,3700062,ON BURLINGTON AT 12TH AVE SOUTHBOUND,,39.130675,-94.580793,,,,,,0
3000054,3000054,ON GRAND AT 9TH SOUTHBOUND FARSIDE,,39.103353,-94.580777,,,,,,0
5848,5848,ON 12TH AT GRAND EASTBOUND,,39.099812,-94.580764,,,,,,0
7100092,7100092,ON GRAND AT 11TH NORTHBOUND,,39.101281,-94.580755,,,,,,0
3700060,3700060,ON BURLINGTON AT 14TH AVE SOUTHBOUND,,39.134075,-94.580752,,,,,,0
3700061,3700061,ON BURLINGTON AT 13TH AVE SOUTHBOUND,,39.132467,-94.58074,,,,,,0
5811,5811,ON 11TH AT GRAND WESTBOUND NEARSIDE,,39.101114,-94.580719,,,,,,0
540015,540015,ON 85TH AT HOLMES EB,,38.973706,-94.58067,,,,,,0
1320031,1320031,ON BURLINGTON AT E 16TH AVE SOUTHBOUND,,39.137669,-94.580665,,,,,,0
570181,570181,ON 13TH AT GRAND/MCGEE WESTBOUND NEARSIDE,,39.098598,-94.580665,,,,,,0
5500105,5500105,ON GRAND AT 9TH NORTHBOUND FARSIDE,,39.103652,-94.580628,,,,,,0
1320030,1320030,ON BURLINGTON AT E 18TH AVE SOUTHBOUND FARSIDE,,39.140069,-94.580627,,,,,,0
372400,372400,ON BARRY AT MAIN EB,,39.246269,-94.580614,,,,,,0
290040,290040,ON BURLINGTON AT 21ST SOUTHBOUND,,39.143698,-94.580602,,,,,,0
1421401,1421401,ON BURLINGTON AT ARMOUR SOUTHBOUND,,39.141728,-94.580599,,,,,,0
5802,5802,ON GRAND AT 5TH SB,,39.108851,-94.580559,,,,,,0
6900015,6900015,ON MCGEE AT PERSHING SOUTHBOUND,,39.084217,-94.580556,,,,,,0
3700054,3700054,ON BURLINGTON AT 23RD AVE SOUTHBOUND,,39.145021,-94.580545,,,,,,0
3000064,3000064,ON 8TH BETWEEN GRAND AND MCGEE EB,,39.104376,-94.580519,,,,,,0
3800109,3800109,ON BURLINGTON AT E 10TH AVE NORTHBOUND,,39.12711,-94.580483,,,,,,0
3700053,3700053,ON BURLINGTON AT 26TH AVE SOUTHBOUND,,39.147764,-94.580479,,,,,,0
2220016,2220016,ON MCGEE NORTH OF PERSHING AT HYATT HOTEL NB,,39.084415,-94.580455,,,,,,0
5710125,5710125,ON 85TH AT HOLMES WESTBOUND,,38.973832,-94.580453,,,,,,0
3700052,3700052,ON BURLINGTON AT 29TH AVE SOUTHBOUND,,39.149813,-94.580447,,,,,,0
5852,5852,ON GRAND AT 5TH NB,,39.108936,-94.580445,,,,,,0
4700038,4700038,ON CLEAVER II BLVD AT LOCUST WESTBOUND,,39.042157,-94.580423,,,,,,0
3800110,3800110,ON BURLINGTON AT E 12TH AVE NORTHBOUND,,39.13073,-94.580413,,,,,,0
1750086,1750086,ON 75TH AT HOLMES EASTBOUND,,38.991684,-94.580402,,,,,,0
3800111,3800111,ON BURLINGTON AT E 13TH AVE NORTHBOUND,,39.132221,-94.580386,,,,,,0
3800112,3800112,ON BURLINGTON AT E 14TH AVE NORTHBOUND,,39.134105,-94.580348,,,,,,0
372202,372202,ON BARRY AT MAIN WB,,39.246468,-94.580344,,,,,,0
1320032,1320032,ON BURLINGTON AT 16TH NORTHBOUND,,39.137739,-94.58032,,,,,,0
1320033,1320033,ON BURLINGTON AT 18TH NORTHBOUND NEARSIDE,,39.140183,-94.580275,,,,,,0
290107,290107,ON BURLINGTON AT ARMOUR NORTHBOUND FARSIDE,,39.141838,-94.580248,,,,,,0
6300039,6300039,ON 63RD AT CHERRY WESTBOUND,,39.013534,-94.580242,,,,,,0
1750034,1750034,ON 75TH AT HOLMES WESTBOUND,,38.99177,-94.580222,,,,,,0
3700094,3700094,ON BURLINGTON AT 21ST AVE NORTHBOUND,,39.143745,-94.580219,,,,,,0
3700095,3700095,ON BURLINGTON AT 23RD AVE NORTHBOUND,,39.145058,-94.580201,,,,,,0
3700096,3700096,ON BURLINGTON AT 26TH AVE NORTHBOUND,,39.147578,-94.580142,,,,,,0
4,4,ON 3RD AT GRAND WESTBOUND,,39.110563,-94.580129,,,,,,0
25004,25004,ON 12TH BETWEEN GRAND AND MCGEE EASTBOUND,MCGEE ST & E 12TH ST,39.099813,-94.579742,,,,,,0
85196,85196,ON MCGEE TRAFFICWAY AT 27TH SOUTHBOUND,,39.076558,-94.580028,,,,,,0
85194,85194,ON MCGEE TRAFFICWAY AT 27TH NORTHBOUND,,39.076755,-94.579994,,,,,,0
3700097,3700097,ON BURLINGTON AT 29TH AVE NORTHBOUND,,39.150013,-94.579989,,,,,,0
390060,390060,ON 39TH AT GILLHAM WESTBOUND,,39.056407,-94.57993,,,,,,0
25003,25003,ON 12TH AT MCGEE EASTBOUND,,39.099767,-94.57986,,,,,,0
390133,390133,ON 39TH AT GILLHAM EASTBOUND,,39.056297,-94.579756,,,,,,0
38151,38151,ON 10TH AVE AT BURLINGTON EASTBOUND,,39.12687,-94.57973,,,,,,0
3000053,3000053,ON 9TH AT MCGEE WESTBOUND,,39.103511,-94.579431,,,,,,0
5300085,5300085,ON GILLHAM BETWEEN LINWOOD AND 33RD SB,,39.067026,-94.579362,,,,,,0
1421510,1421510,ON 3RD AT GRAND/OAK EASTBOUND,,39.110616,-94.579324,,,,,,0
6300060,6300060,ON 63RD AT HOLMES EASTBOUND,,39.013418,-94.5793,,,,,,0
85193,85193,ON MCGEE TRAFFICWAY AT 29TH NORTHBOUND,,39.074522,-94.579272,,,,,,0
5300032,5300032,ON GILLHAM RD AT GILLHAM PLAZA NB,,39.066978,-94.579237,,,,,,0
5400118,5400118,ON GILLHAM AT LINWOOD SOUTHBOUND,,39.068769,-94.57913,,,,,,0
3100060,3100060,ON 31ST AT GILLHAM PLAZA EB,,39.070708,-94.579103,,,,,,0
6300038,6300038,ON 63RD AT HOLMES WESTBOUND,,39.013511,-94.579081,,,,,,0
5400117,5400117,ON GILLHAM AT 31ST SOUTHBOUND,,39.070925,-94.578987,,,,,,0
24151,24151,ON 8TH BETWEEN MCGEE AND OAK EASTBOUND MIDBLOCK,,39.104308,-94.578927,,,,,,0
290036,290036,ON N OAK AT 32ND SOUTHBOUND,,39.152232,-94.578925,,,,,,0
5300033,5300033,ON GILLHAM AT LINWOOD NORTHBOUND,,39.069122,-94.578913,,,,,,0
5300087,5300087,ON ARMOUR AT CHERRY EASTBOUND,,39.063477,-94.578826,,,,,,0
25530,25530,ON GILLHAM AT 31ST NORTHBOUND,,39.070958,-94.578822,,,,,,0
85191,85191,ON 29TH AT GILLHAM RD EASTBOUND,,39.074338,-94.578814,,,,,,0
4700169,4700169,ON CLEAVER II BLVD AT ROCKHILL EB,,39.041844,-94.578787,,,,,,0
3100036,3100036,ON 31ST AT GILLHAM RD WESTBOUND,,39.070845,-94.578701,,,,,,0
2400078,2400078,ON ADMIRAL AT SUPERIOR WESTBOUND,,39.105378,-94.578624,,,,,,0
1332503,1332503,ON 10TH AT CLAY WB,,39.126967,-94.578606,,,,,,0
5400063,5400063,ON ARMOUR AT CHERRY WESTBOUND,,39.063573,-94.578536,,,,,,0
3700098,3700098,ON N OAK AT 32ND NORTHBOUND,,39.152215,-94.578506,,,,,,0
282319,282319,ON OAK AT 12TH NORTHBOUND FARSIDE,,39.099936,-94.578493,,,,,,0
4700037,4700037,ON CLEAVER II BLVD AT ROCKHILL WB,,39.041921,-94.578398,,,,,,0
110046,110046,ON 11TH AT OAK WESTBOUND,,39.101005,-94.578364,,,,,,0
25085,25085,ON TROOST AT 9401 SB,,38.956138,-94.577878,,,,,,0
25136,25136,ON TROOST AT BANNISTER NORTHBOUND,,38.956118,-94.577763,,,,,,0
1200129,1200129,ON 12TH AT LOCUST EASTBOUND,,39.099698,-94.577598,,,,,,0
252300,252300,ON TROOST AT 9401 TROOST NORTHBOUND,,38.957604,-94.577571,,,,,,0
1350041,1350041,ON SWIFT AT E 12TH AVE SOUTHBOUND,,39.130589,-94.577516,,,,,,0
25084,25084,INACTIVE 10082017 ON TROOST AT 92ND SB,,38.960891,-94.577486,,,,,,0
1350042,1350042,ON SWIFT AT E 10TH AVE SOUTHBOUND,,39.127033,-94.577484,,,,,,0
1330065,1330065,ON SWIFT AT 14TH NS SB,,39.134295,-94.577478,,,,,,0
1350040,1350040,ON SWIFT AT E 13TH AVE SOUTHBOUND,,39.132445,-94.577462,,,,,,0
1330064,1330064,ON SWIFT AT 16TH SOUTHBOUND,,39.137633,-94.577432,,,,,,0
1350066,1350066,ON SWIFT AT E 10TH AVE NORTHBOUND,,39.127162,-94.577397,,,,,,0
1330063,1330063,ON SWIFT AT 18TH SOUTHBOUND EASTBOUND,,39.140038,-94.577379,,,,,,0
1330049,1330049,ON SWIFT BETWEEN ARMOUR AND 19TH SB,,39.141335,-94.577357,,,,,,0
1350067,1350067,ON SWIFT AT E 12TH AVE NORTHBOUND,,39.130648,-94.577355,,,,,,0
1350068,1350068,ON SWIFT AT E 13TH AVE NORTHBOUND,,39.132255,-94.577354,,,,,,0
282308,282308,ON LOCUST AT 12TH NORTHBOUND,,39.099635,-94.577337,,,,,,0
7100087,7100087,ON 13TH AT LOCUST WESTBOUND,,39.098484,-94.577329,,,,,,0
1350069,1350069,ON SWIFT AT E 14TH AVE NORTHBOUND,,39.134565,-94.577323,,,,,,0
3800114,3800114,ON SWIFT AT E 16TH AVE NORTHBOUND,,39.137716,-94.57729,,,,,,0
1420025,1420025,ON LOCUST AT 11TH ST NORTHBOUND,,39.100817,-94.577265,,,,,,0
3800115,3800115,ON SWIFT AT E 18TH AVE NORTHBOUND,,39.140143,-94.577236,,,,,,0
3800116,3800116,ON SWIFT AT ARMOUR NORTHBOUND NEARSIDE,,39.141875,-94.577194,,,,,,0
3700050,3700050,ON N OAK AT 3316 N OAK SOUTHBOUND,,39.155993,-94.577123,,,,,,0
540016,540016,ON 85TH ST AT TROOST EASTBOUND,,38.973437,-94.57703,,,,,,0
3800067,3800067,ON N OAK AT N HILL ST SOUTHBOUND,,39.159417,-94.577004,,,,,,0
3800068,3800068,ON N OAK AT 3315 N OAK NORTHBOUND,,39.155999,-94.576989,,,,,,0
25083,25083,ON TROOST AT 89TH SOUTHBOUND,,38.966311,-94.576977,,,,,,0
390134,390134,ON 39TH AT HOLMES EASTBOUND,,39.056211,-94.576905,,,,,,0
3800066,3800066,ON N OAK AT N INDIANOLA SOUTHBOUND,,39.163061,-94.576899,,,,,,0
3700042,3700042,ON N OAK BETWEEN VIVION AND I-29 SOUTHBOUND,,39.180301,-94.576849,,,,,,0
25086,25086,ON BANNISTER AT 1115 E BANNISTER RD EASTBOUND,,38.95517,-94.576841,,,,,,0
3800064,3800064,ON N OAK AT NE 42ND ST SOUTHBOUND,,39.169931,-94.576837,,,,,,0
142507,142507,ON N OAK AT NORMANDY SB,,39.177297,-94.576836,,,,,,0
25138,25138,ON TROOST AT 89TH NORTHBOUND,,38.966122,-94.576835,,,,,,0
3700100,3700100,ON N OAK AT HILL ST NORTHBOUND,,39.159238,-94.576834,,,,,,0
3800065,3800065,ON N OAK AT N EVANSDALE SOUTHBOUND,,39.16781,-94.576832,,,,,,0
25082,25082,ON TROOST AT 8700 SOUTHBOUND,,38.969169,-94.576818,,,,,,0
1420323,1420323,ON N OAK AT 43RD TERR SOUTHBOUND,,39.172865,-94.576808,,,,,,0
1422502,1422502,ON N OAK AT 4900 SB,,39.182863,-94.576805,,,,,,0
25081,25081,ON TROOST AT 86TH TERR SOUTHBOUND,,38.970624,-94.576772,,,,,,0
3800126,3800126,ON N OAK AT INDIANOLA NORTHBOUND,,39.163057,-94.576762,,,,,,0
6300037,6300037,ON 63RD AT ROCKHILL WB,,39.013401,-94.576751,,,,,,0
25139,25139,ON TROOST AT 8701 NORTHBOUND,,38.967763,-94.576735,,,,,,0
14202,14202,ON NORTH OAK AT 51ST SB,,39.186228,-94.576698,,,,,,0
142152,142152,ON N OAK AT 50TH SOUTHBOUND,,39.185086,-94.576679,,,,,,0
290117,290117,ON N OAK AT 42ND NORTHBOUND,,39.170226,-94.576675,,,,,,0
290115,290115,ON N OAK AT EVANSDALE NORTHBOUND,,39.167606,-94.576663,,,,,,0
3100062,3100062,ON 31ST AT HOLMES EASTBOUND,,39.070645,-94.576656,,,,,,0
6300061,6300061,ON 63RD AT ROCKHILL EASTBOUND,,39.013296,-94.576651,,,,,,0
2688,2688,ON N OAK AT NE GREENFIELD,,39.1736,-94.576646,,,,,,0
390059,390059,ON 39TH AT HOLMES WESTBOUND,,39.056304,-94.57664,,,,,,0
1425306,1425306,ON NORTH OAK AT 5306 SOUTHBOUND,,39.190521,-94.576638,,,,,,0
25140,25140,ON TROOST AT 86TH TERR NORTHBOUND,,38.970647,-94.576623,,,,,,0
1421501,1421501,ON N OAK AT 55TH SOUTHBOUND,,39.194376,-94.576614,,,,,,0
1420007,1420007,ON N OAK AT NE ENGLEWOOD SB,,39.195815,-94.576603,,,,,,0
1420008,1420008,ON N OAK AT NE 54TH ST SOUTHBOUND,,39.193578,-94.576602,,,,,,0
4700170,4700170,ON CLEAVER II BLVD AT CHARLOTTE EB,,39.041743,-94.576592,,,,,,0
1420303,1420303,ON N OAK AT 50TH NORTHBOUND,,39.18404,-94.576558,,,,,,0
25080,25080,ON TROOST AT 84TH SOUTHBOUND,,38.975186,-94.576547,,,,,,0
1420302,1420302,ON N OAK AT NORMANDY NORTHBOUND,,39.177245,-94.576542,,,,,,0
14201,14201,ON NORTH OAK AT 51ST NB,,39.186248,-94.576524,,,,,,0
3700109,3700109,ON N OAK AT NE VIVION RD NORTHBOUND,,39.181675,-94.576489,,,,,,0
1420006,1420006,ON N OAK AT NE 58TH ST SB,,39.199377,-94.576472,,,,,,0
1425307,1425307,ON NORTH OAK AT 5307 NORTHBOUND,,39.190516,-94.576458,,,,,,0
1422501,1422501,ON N OAK AT 59TH TERR SB,,39.201772,-94.576451,,,,,,0
1420012,1420012,ON N OAK AT NE 54TH ST NORTHBOUND,,39.193592,-94.576436,,,,,,0
3100034,3100034,ON 31ST AT HOLMES WESTBOUND,,39.070743,-94.576418,,,,,,0
25078,25078,ON TROOST AT PRESIDENT AVE SOUTHBOUND NEARSIDE,,38.977922,-94.576415,,,,,,0
1420005,1420005,ON N OAK AT NE 61ST ST SOUTHBOUND FARSIDE,,39.204506,-94.576402,,,,,,0
1420022,1420022,ON N OAK AT 6269 N OAK SB,,39.207187,-94.576365,,,,,,0
25141,25141,ON TROOST AT 83RD TERRACE NORTHBOUND,,38.9757,-94.576353,,,,,,0
1420014,1420014,ON N OAK AT WOODLAND DR NB,,39.19897,-94.576347,,,,,,0
26012,26012,ON TROOST AT 82ND TERR SOUTHBOUND NEARSIDE,,38.979596,-94.576339,,,,,,0
25142,25142,ON TROOST AT PRESIDENT AVE NORTHBOUND NEARSIDE,,38.977694,-94.576338,,,,,,0
1420013,1420013,ON N OAK AT NE ENGLEWOOD NORTHBOUND,,39.195617,-94.576334,,,,,,0
1420004,1420004,ON N OAK AT NE 64TH ST SB,,39.21019,-94.576332,,,,,,0
1420304,1420304,ON N OAK AT 55TH NORTHBOUND,,39.194413,-94.576322,,,,,,0
1420305,1420305,ON N OAK AT 59TH TERR NB,,39.202504,-94.576296,,,,,,0
1420021,1420021,ON N OAK AT 65TH ST SB,,39.212392,-94.576267,,,,,,0
1420015,1420015,ON N OAK AT NE 61ST TERR NB,,39.204613,-94.576257,,,,,,0
1231206,1231206,ON 22ND ST AT HOLMES WESTBOUND FARSIDE,,39.086493,-94.576239,,,,,,0
4700036,4700036,ON CLEAVER II BLVD AT CHARLOTTE WB,,39.041846,-94.576235,,,,,,0
1420003,1420003,ON N OAK AT NE 67TH PL SB,,39.214619,-94.576233,,,,,,0
25143,25143,ON TROOST AT 82ND TERR NORTHBOUND NEARSIDE,,38.979425,-94.576233,,,,,,0
1420024,1420024,ON N OAK AT 6270 N OAK NB,,39.207664,-94.576218,,,,,,0
5400061,5400061,ON ARMOUR AT HOLMES WESTBOUND,,39.063477,-94.576207,,,,,,0
3700011,3700011,ON N OAK AT 72ND SB,,39.224811,-94.5762,,,,,,0
1420002,1420002,ON N OAK AT NE 70TH ST SB,,39.221118,-94.576192,,,,,,0
5300089,5300089,ON ARMOUR AT HOLMES EASTBOUND,,39.063361,-94.576192,,,,,,0
1420016,1420016,ON N OAK AT SHADY LANE NB,,39.210001,-94.576171,,,,,,0
3700510,3700510,ON N OAK AT 74TH SB,,39.228316,-94.576164,,,,,,0
2400088,2400088,ON 13TH AT CHERRY WESTBOUND,,39.098447,-94.576157,,,,,,0
3700009,3700009,ON N OAK AT 76TH SB,,39.231984,-94.576155,,,,,,0
1350073,1350073,ON ARMOUR AT ERIE EASTBOUND NEARSIDE,,39.142111,-94.576153,,,,,,0
3700508,3700508,ON N OAK AT 77TH SB,,39.234168,-94.576148,,,,,,0
25075,25075,ON TROOST AT 7920 TROOST SOUTHBOUND NEARSIDE,,38.983521,-94.576124,,,,,,0
1420023,1420023,ON N OAK AT 65TH ST NB,,39.212206,-94.576117,,,,,,0
3700006,3700006,ON N OAK AT 79TH TERR SOUTHBOUND,,39.238279,-94.576078,,,,,,0
1420017,1420017,ON N OAK AT NE 67TH PL NB,,39.214688,-94.576074,,,,,,0
3700005,3700005,ON N OAK AT 81ST ST SOUTHBOUND,,39.240515,-94.576072,,,,,,0
2522073,2522073,ON TROOST AT 7834 TROOST SOUTHBOUND NEARSIDE,,38.984813,-94.57607,,,,,,0
540005,540005,ON 85TH ST AT TROOST WB,,38.973491,-94.57607,,,,,,0
2700051,2700051,ON 27TH AT HOLMES WESTBOUND,,39.077977,-94.57605,,,,,,0
142155,142155,ON N OAK AT 72ND NB,,39.224617,-94.576048,,,,,,0
1090042,1090042,ON 11TH AT CHERRY WESTBOUND,E 11TH ST & CHERRY ST,39.100883,-94.576088,,,,,,0
3700004,3700004,ON N OAK AT 82ND SOUTHBOUND,,39.24288,-94.576038,,,,,,0
3700136,3700136,ON N OAK AT 74TH NB,,39.228381,-94.576033,,,,,,0
1420018,1420018,ON N OAK AT NE 70TH ST NB,,39.220935,-94.576025,,,,,,0
25146,25146,ON TROOST AT 80TH ST NORTHBOUND FARSIDE,,38.983246,-94.576023,,,,,,0
3700588,3700588,ON N OAK AT 76TH NB,,39.231815,-94.576018,,,,,,0
3700589,3700589,ON N OAK AT 77TH NB,,39.233955,-94.576002,,,,,,0
3700135,3700135,ON N OAK AT 72ND TERR NORTHBOUND FARSIDE,,39.225786,-94.575994,,,,,,0
3700002,3700002,ON N OAK AT BARRY RD SOUTHBOUND,,39.246173,-94.575988,,,,,,0
2400077,2400077,ON ADMIRAL AT CHERRY WESTBOUND,,39.105201,-94.575951,,,,,,0
3700592,3700592,ON N OAK AT 81ST NORTHBOUND,,39.240884,-94.57592,,,,,,0
25149,25149,ON TROOST AT 7801 TROOST NORTHBOUND NEARSIDE,,38.985197,-94.575918,,,,,,0
3700591,3700591,ON N OAK AT 79TH TERR NORTHBOUND,,39.237865,-94.575918,,,,,,0
1320036,1320036,ON ARMOUR AT ERIE WESTBOUND NEARSIDE,,39.142285,-94.575904,,,,,,0
25071,25071,ON TROOST AT 7648 TROOST SOUTHBOUND NEARSIDE,,38.988064,-94.575902,,,,,,0
2700054,2700054,ON HOLMES AT 25TH NORTHBOUND,,39.081684,-94.575882,,,,,,0
1231205,1231205,ON 22ND ST AT HOLMES EB,,39.086321,-94.575874,,,,,,0
2400099,2400099,ON ADMIRAL AT CHERRY EASTBOUND,,39.105096,-94.575869,,,,,,0
3700142,3700142,ON N OAK AT 82ND NORTHBOUND,,39.242946,-94.575858,,,,,,0
1750088,1750088,ON 75TH AT TROOST EASTBOUND,,38.991516,-94.575833,,,,,,0
3700143,3700143,ON N OAK AT 83RD NORTHBOUND,,39.245371,-94.575822,,,,,,0
25191,25191,ON TROOST AT 77TH NORTHBOUND NEARSIDE,,38.987306,-94.575805,,,,,,0
2700101,2700101,ON HOLMES BETWEEN 24TH AND 23RD NORTHBOUND,,39.084563,-94.575773,,,,,,0
26011,26011,ON TROOST AT 75TH SOUTHBOUND FARSIDE,,38.991667,-94.575623,,,,,,0
25102,25102,ON FOREST AT PRESIDENT AVE SOUTHBOUND,,38.978047,-94.575715,,,,,,0
25152,25152,ON TROOST AT 76TH NORTHBOUND NEARSIDE,,38.989379,-94.575701,,,,,,0
26014,26014,ON TROOST AT 75TH NORTHBOUND,,38.991685,-94.575583,,,,,,0
1750032,1750032,ON 75TH AT TROOST WESTBOUND,,38.991603,-94.575539,,,,,,0
25067,25067,ON TROOST AT 73RD SOUTHBOUND,,38.995335,-94.575535,,,,,,0
25155,25155,ON TROOST AT 73RD NORTHBOUND,,38.995126,-94.575429,,,,,,0
26025,26025,ON HOLMES AT 18TH NB,,39.091678,-94.575394,,,,,,0
25065,25065,ON TROOST AT GREGORY SOUTHBOUND,,38.998891,-94.575367,,,,,,0
26015,26015,ON TROOST AT GREGORY NB,,38.998911,-94.575229,,,,,,0
25062,25062,ON TROOST AT 6900 SOUTHBOUND,,39.001516,-94.575223,,,,,,0
4700171,4700171,ON CLEAVER II BLVD AT CAMPBELL EB,,39.041672,-94.575105,,,,,,0
4700035,4700035,ON CLEAVER II BLVD AT CAMPBELL WB,,39.041812,-94.575095,,,,,,0
15161,15161,ON HOLMES AT 13TH NORTHBOUND NEARSIDE,,39.098224,-94.575056,,,,,,0
25158,25158,ON TROOST AT 69TH NB,,39.002256,-94.57505,,,,,,0
26010,26010,ON TROOST AT 67TH SB,,39.006107,-94.575031,,,,,,0
2700106,2700106,ON CHARLOTTE AT 25TH SOUTHBOUND,,39.081625,-94.574918,,,,,,0
26016,26016,ON TROOST AT 67TH NB,,39.006481,-94.574836,,,,,,0
25057,25057,ON TROOST AT 65TH SOUTHBOUND,,39.009799,-94.5748,,,,,,0
25018,25018,ON CHARLOTTE BETWEEN 23RD AND 24TH SOUTHBOUND,,39.084481,-94.57479,,,,,,0
2400008,2400008,ON 13TH BETWEEN CHARLOTTE & HOLMES WB,,39.098389,-94.574777,,,,,,0
25056,25056,ON TROOST AT MEYER SOUTHBOUND,,39.011611,-94.574757,,,,,,0
25165,25165,ON TROOST AT 65TH NORTHBOUND,,39.009537,-94.574677,,,,,,0
26009,26009,ON TROOST AT 63RD SB,,39.0131,-94.574642,,,,,,0
25166,25166,ON TROOST AT MEYER NORTHBOUND,,39.011606,-94.574576,,,,,,0
25167,25167,ON TROOST AT 63RD NORTHBOUND,,39.013475,-94.574501,,,,,,0
1090041,1090041,ON 11TH BETWEEN CHARLOTTE AND HOLMES WESTBOUND,,39.100885,-94.574437,,,,,,0
6300036,6300036,ON 63RD AT TROOST WESTBOUND,,39.013294,-94.574436,,,,,,0
25053,25053,ON TROOST AT 61ST SOUTHBOUND,,39.016731,-94.574434,,,,,,0
26002,26002,ON CHARLOTTE AT 18TH SB,,39.091171,-94.574429,,,,,,0
7100084,7100084,ON TRUMAN AT CHARLOTTE WESTBOUND FARSIDE,,39.095635,-94.5744,,,,,,0
25169,25169,ON TROOST AT 61ST NORTHBOUND,,39.016483,-94.57432,,,,,,0
26008,26008,ON TROOST AT 59TH SB,,39.019818,-94.574281,,,,,,0
212,212,ON 12TH BETWEEN HOLMES AND CHARLOTTE EASTBOUND,,39.099558,-94.574269,,,,,,0
1529,1529,ON FRONT AT RIVERFRONT EASTBOUND,,39.115299,-94.574141,,,,,,0
6231,6231,ON FRONT AT RIVERFRONT WESTBOUND,,39.115536,-94.574135,,,,,,0
26001,26001,ON 12TH AT CHARLOTTE EASTBOUND NEARSIDE,,39.099568,-94.57413,,,,,,0
3100064,3100064,ON 31ST AT CAMPBELL EASTBOUND,,39.070556,-94.574116,,,,,,0
26017,26017,ON TROOST AT 59TH NB,,39.020088,-94.574113,,,,,,0
6300062,6300062,ON 63RD AT TROOST EASTBOUND,,39.01316,-94.574097,,,,,,0
25049,25049,ON TROOST AT 57TH SOUTHBOUND,,39.023704,-94.574043,,,,,,0
25173,25173,ON TROOST AT 57TH NORTHBOUND,,39.023463,-94.573967,,,,,,0
1320034,1320034,ON ARMOUR AT GENTRY WESTBOUND FARSIDE,,39.142633,-94.573922,,,,,,0
5400060,5400060,INACTIVE 812016  ON ARMOUR AT CAMPBELL WESTBOUND,,39.063398,-94.573899,,,,,,0
211,211,EAST VILLAGE - BAY H,,39.099406,-94.573877,,,,,,0
207,207,EAST VILLAGE - BAY I,,39.099525,-94.573876,,,,,,0
1350072,1350072,ON ARMOUR AT GENTRY EASTBOUND NEARSIDE,,39.142522,-94.57385,,,,,,0
25047,25047,ON TROOST AT 55TH SOUTHBOUND,,39.027328,-94.573843,,,,,,0
208,208,EAST VILLAGE - BAY K,,39.099667,-94.57382,,,,,,0
3100032,3100032,ON 31ST AT CAMPBELL WESTBOUND,,39.070648,-94.573805,,,,,,0
26018,26018,ON TROOST AT 55TH NB,,39.027325,-94.57373,,,,,,0
2400075,2400075,ON CHARLOTTE AT ADMIRAL SOUTHBOUND,,39.105348,-94.57373,,,,,,0
200,200,EAST VILLAGE - BAY J,,39.099554,-94.573677,,,,,,0
26024,26024,ON 25TH AT CAMPBELL WB,,39.081514,-94.573654,,,,,,0
206,206,EAST VILLAGE - BAY F,,39.099146,-94.573644,,,,,,0
26003,26003,ON 25TH AT CAMPBELL EB,,39.081391,-94.5736,,,,,,0
2400100,2400100,ON CHARLOTTE AT 6TH NORTHBOUND,,39.105861,-94.573571,,,,,,0
2700108,2700108,ON 27TH AT CAMPBELL EB,,39.077766,-94.573533,,,,,,0
25044,25044,ON TROOST AT 52ND/ROCKHURST SOUTHBOUND,,39.032841,-94.573515,,,,,,0
203,203,EAST VILLAGE - BAY C,,39.099149,-94.573462,,,,,,0
26007,26007,ON TROOST AT 51ST SB,,39.034312,-94.573454,,,,,,0
202,202,EAST VILLAGE - BAY B,,39.09926,-94.573453,,,,,,0
201,201,EAST VILLAGE - BAY A,,39.099456,-94.573445,,,,,,0
26019,26019,ON TROOST AT 52ND NB,,39.032847,-94.573418,,,,,,0
4700034,4700034,ON CLEAVER II BLVD AT TROOST WB,,39.041739,-94.573337,,,,,,0
25179,25179,ON TROOST AT 51ST NORTHBOUND,,39.034319,-94.573272,,,,,,0
213,213,ON 12TH AT CHARLOTTE WESTBOUND NEARSIDE,,39.099646,-94.573268,,,,,,0
25172,25172,ON TROOST AT VOLKER SOUTHBOUND,,39.037404,-94.57321,,,,,,0
252307,252307,ON TROOST AT 48TH / UMKC SOUTHBOUND,,39.040357,-94.57309,,,,,,0
25181,25181,ON TROOST AT VOLKER/49TH NORTHBOUND,,39.037417,-94.573071,,,,,,0
25040,25040,ON TROOST AT CLEAVER II SOUTHBOUND,,39.041824,-94.572998,,,,,,0
25171,25171,ON TROOST AT 48TH ST / UMKC NORTHBOUND,,39.040429,-94.572968,,,,,,0
5500208,5500208,ON BANNISTER AT LYDIA EASTBOUND,,38.955025,-94.572956,,,,,,0
7100128,7100128,ON TRUMAN AT CAMPBELL EASTBOUND,,39.09543,-94.572926,,,,,,0
25134,25134,ON BANNISTER AT LYDIA WESTBOUND,,38.955205,-94.572905,,,,,,0
25039,25039,ON TROOST AT BRUSH CREEK SOUTHBOUND,,39.043709,-94.572893,,,,,,0
26020,26020,ON TROOST AT 47TH/EMANUEL CLEAVER II NB,,39.041824,-94.572885,,,,,,0
25183,25183,ON TROOST AT 45TH STREET SOUTHBOUND FARSIDE,,39.045171,-94.572824,,,,,,0
25185,25185,ON TROOST AT BRUSH CREEK NORTHBOUND,,39.043473,-94.572805,,,,,,0
25186,25186,ON TROOST AT 45TH NORTHBOUND,,39.045176,-94.572723,,,,,,0
25036,25036,ON TROOST AT 43RD SOUTHBOUND,,39.04877,-94.572626,,,,,,0
6300035,6300035,ON 63RD AT TRACY WESTBOUND,,39.013217,-94.572474,,,,,,0
26021,26021,ON TROOST AT 43RD NB,,39.049805,-94.57241,,,,,,0
25034,25034,ON TROOST AT 41ST SOUTHBOUND,,39.052648,-94.572374,,,,,,0
25190,25190,ON TROOST AT 41ST NORTHBOUND,,39.052419,-94.572269,,,,,,0
390137,390137,ON 39TH AT TROOST EASTBOUND,,39.056035,-94.572248,,,,,,0
2400073,2400073,ON INDEPENDENCE AVE AT CAMPBELL WESTBOUND,,39.107145,-94.572218,,,,,,0
25032,25032,ON TROOST AT 39TH SOUTHBOUND,,39.055901,-94.572202,,,,,,0
2400102,2400102,ON INDEPENDENCE AVE AT CAMPBELL EASTBOUND,,39.107039,-94.572164,,,,,,0
25192,25192,ON TROOST AT 39TH NORTHBOUND,,39.056191,-94.57205,,,,,,0
390057,390057,ON 39TH AT TROOST WESTBOUND,,39.056126,-94.571997,,,,,,0
25030,25030,ON TROOST AT 37TH SOUTHBOUND,,39.059779,-94.571953,,,,,,0
25194,25194,ON TROOST AT 37TH  NORTHBOUND,,39.059552,-94.57188,,,,,,0
5300091,5300091,ON ARMOUR AT TROOST EASTBOUND,,39.063195,-94.571869,,,,,,0
26006,26006,ON TROOST AT ARMOUR SOUTHBOUND,,39.063123,-94.57178,,,,,,0
1350075,1350075,ON ARMOUR AT IRON EASTBOUND NEARSIDE,,39.142901,-94.571662,,,,,,0
26022,26022,ON TROOST AT ARMOUR NB,,39.063424,-94.571632,,,,,,0
5400059,5400059,ON ARMOUR AT TROOST WESTBOUND,,39.06329,-94.571557,,,,,,0
25025,25025,ON TROOST AT LINWOOD SOUTHBOUND,,39.068536,-94.571489,,,,,,0
3100066,3100066,ON 31ST AT TROOST EASTBOUND,,39.070443,-94.57144,,,,,,0
26005,26005,ON TROOST AT 31ST SB,,39.070355,-94.571415,,,,,,0
25199,25199,ON TROOST AT LINWOOD NORTHBOUND,,39.06859,-94.571363,,,,,,0
6300063,6300063,ON 63RD BETWEEN TRACY AND PASEO EASTBOUND,,39.013073,-94.571312,,,,,,0
2440035,2440035,ON ARMOUR AT IRON WESTBOUND NEARSIDE,,39.143082,-94.571307,,,,,,0
1632305,1632305,ON 63RD ST BETWEEN PASEO AND TRACY WESTBOUND,,39.01319,-94.571296,,,,,,0
25200,25200,ON TROOST AT 31ST NORTHBOUND,,39.070419,-94.571257,,,,,,0
4700173,4700173,ON CLEAVER II BLVD BETWEEN FOREST & TRACY EB,,39.041564,-94.571245,,,,,,0
3100030,3100030,ON 31ST AT TROOST WESTBOUND,,39.07055,-94.571219,,,,,,0
4700033,4700033,ON CLEAVER II BLVD AT FOREST/TRACY WB,,39.04167,-94.571209,,,,,,0
25022,25022,ON TROOST AT 29TH SOUTHBOUND,,39.07427,-94.571197,,,,,,0
1750090,1750090,ON 75TH AT LYDIA EASTBOUND,,38.991363,-94.571186,,,,,,0
2700110,2700110,ON 27TH AT TROOST EASTBOUND,,39.077677,-94.571105,,,,,,0
25202,25202,ON TROOST AT 29TH NORTHBOUND,,39.074027,-94.571081,,,,,,0
26004,26004,ON TROOST AT 27TH SB,,39.077601,-94.571059,,,,,,0
540018,540018,ON 85TH ST AT FLORA EB,,38.973165,-94.571006,,,,,,0
540003,540003,ON 85TH ST AT FLORA WB,,38.973292,-94.571,,,,,,0
1750030,1750030,ON 75TH AT LYDIA WESTBOUND,,38.991405,-94.570945,,,,,,0
26023,26023,ON TROOST AT 27TH NB,,39.077865,-94.570874,,,,,,0
250029,250029,ON TROOST AT 25TH ST SB,,39.081468,-94.570822,,,,,,0
250028,250028,ON TROOST AT 24TH ST SB,,39.0828,-94.570792,,,,,,0
2700048,2700048,ON 27TH AT TROOST WESTBOUND,,39.077783,-94.57079,,,,,,0
25325,25325,ON TROOST AT 25TH NB,,39.081282,-94.570736,,,,,,0
25324,25324,ON TROOST AT 24TH NB,,39.082796,-94.570638,,,,,,0
5400154,5400154,ON PASEO AT 63RD SOUTHBOUND,,39.013234,-94.570543,,,,,,0
75195,75195,ON 12TH AT TROOST WESTBOUND FARSIDE,,39.099544,-94.57044,,,,,,0
5400152,5400152,ON PASEO AT 61ST SOUTHBOUND,,39.016574,-94.570409,,,,,,0
250026,250026,ON TROOST AT 18TH SOUTHBOUND,,39.09147,-94.57034,,,,,,0
25013,25013,ON TROOST AT 17TH SOUTHBOUND,,39.092834,-94.570305,,,,,,0
25212,25212,ON TROOST AT 18TH NORTHBOUND,,39.091823,-94.570191,,,,,,0
25011,25011,ON TROOST AT TRUMAN SOUTHBOUND NEARSIDE,,39.095469,-94.570152,,,,,,0
25213,25213,ON TROOST AT 17TH NORTHBOUND,,39.092895,-94.570147,,,,,,0
25010,25010,ON 12TH AT TROOST EASTBOUND,,39.099424,-94.570095,,,,,,0
25214,25214,ON TROOST AT TRUMAN NORTHBOUND,,39.095524,-94.570014,,,,,,0
7100082,7100082,ON TRUMAN AT TROOST WESTBOUND NEARSIDE,,39.095427,-94.569963,,,,,,0
711202,711202,ON TRUMAN RD AT TROOST EASTBOUND FARSIDE,,39.095317,-94.569905,,,,,,0
390139,390139,ON 39TH AT TRACY EASTBOUND,,39.055951,-94.569874,,,,,,0
5400032,5400032,ON PASEO AT 63RD NORTHBOUND,,39.013279,-94.569837,,,,,,0
5400034,5400034,ON PASEO AT 61ST NORTHBOUND,,39.016298,-94.569729,,,,,,0
390055,390055,ON 39TH AT TRACY WESTBOUND,,39.05605,-94.569703,,,,,,0
5400150,5400150,ON PASEO AT 59TH SOUTHBOUND,,39.01991,-94.569684,,,,,,0
5400126,5400126,ON ARMOUR AT TRACY EASTBOUND,,39.063116,-94.56967,,,,,,0
109162,109162,ON 10TH AT TROOST EASTBOUND FARSIDE,,39.101858,-94.569599,,,,,,0
3000048,3000048,ON 9TH AT TROOST WESTBOUND,,39.103165,-94.569589,,,,,,0
5400036,5400036,ON PASEO AT 59TH NORTHBOUND,,39.019321,-94.569543,,,,,,0
6900036,6900036,ON 8TH AT TROOST EASTBOUND,,39.104004,-94.569511,,,,,,0
2440032,2440032,ON ARMOUR AT KNOX EASTBOUND,,39.143316,-94.569298,,,,,,0
5300025,5300025,ON ARMOUR AT TRACY WESTBOUND,,39.063244,-94.569258,,,,,,0
1080200,1080200,ON 18TH AT FOREST EASTBOUND,,39.091293,-94.569073,,,,,,0
1320028,1320028,ON ARMOUR AT KNOX WESTBOUND NEARSIDE,,39.143491,-94.569048,,,,,,0
1080162,1080162,ON 18TH AT FOREST WESTBOUND,,39.091394,-94.568835,,,,,,0
54152,54152,ON PASEO AT MEYER SB,,39.012374,-94.568805,,,,,,0
3100067,3100067,ON 31ST AT TRACY EASTBOUND,,39.070349,-94.568779,,,,,,0
85161,85161,ON PASEO AT MEYER NORTHBOUND,,39.012395,-94.56867,,,,,,0
1750029,1750029,ON 75TH AT WAYNE WESTBOUND,,38.991346,-94.568659,,,,,,0
5400090,5400090,ON PASEO AT VOLKER SOUTHBOUND,,39.04008,-94.568555,,,,,,0
3100029,3100029,ON 31ST AT TRACY WESTBOUND,,39.070448,-94.568542,,,,,,0
5400139,5400139,ON PASEO AT CLEAVER II BLVD SB,,39.041859,-94.568504,,,,,,0
5400157,5400157,ON PASEO AT 66TH SOUTHBOUND,,39.008356,-94.568473,,,,,,0
6300064,6300064,ON 63RD AT PASEO/BUSHMAN EASTBOUND,,39.012901,-94.568291,,,,,,0
5400148,5400148,ON PASEO AT 57TH SOUTHBOUND,,39.023529,-94.568289,,,,,,0
5400029,5400029,ON PASEO NORTH OF 66TH,,39.008328,-94.56826,,,,,,0
5400138,5400138,ON PASEO AT 45TH SOUTHBOUND,,39.045296,-94.568207,,,,,,0
1750091,1750091,ON 75TH BETWEEN WAYNE & HIGHLAND EB,,38.991211,-94.568204,,,,,,0
2400071,2400071,ON INDEPENDENCE AVE AT FOREST WESTBOUND,,39.10698,-94.568111,,,,,,0
5400137,5400137,ON PASEO AT 44TH SOUTHBOUND,,39.047235,-94.568091,,,,,,0
5400140,5400140,ON PASEO AT 49TH SOUTHBOUND,,39.036983,-94.568082,,,,,,0
6300034,6300034,ON 63RD AT PASEO WESTBOUND,,39.013059,-94.568062,,,,,,0
5400146,5400146,ON PASEO AT 55TH SOUTHBOUND FARSIDE,,39.026863,-94.568056,,,,,,0
5400065,5400065,ON PASEO AT CLEAVER II BLVD  NB,,39.041939,-94.568049,,,,,,0
2400104,2400104,ON INDEPENDENCE AVE AT FOREST EASTBOUND,,39.106884,-94.568045,,,,,,0
5400136,5400136,ON PASEO AT 43RD SOUTHBOUND,,39.048925,-94.568009,,,,,,0
5400047,5400047,ON PASEO AT 45TH NORTHBOUND,,39.044965,-94.567997,,,,,,0
5400092,5400092,ON PASEO AT VOLKER NB,,39.039569,-94.567985,,,,,,0
4700032,4700032,ON CLEAVER II BLVD AT PASEO WB,,39.041868,-94.567958,,,,,,0
5400048,5400048,ON PASEO AT 44TH NORTHBOUND,,39.046795,-94.567887,,,,,,0
472500,472500,ON CLEAVER II BLVD AT PASEO EB,,39.041606,-94.567858,,,,,,0
5400144,5400144,ON PASEO AT 53RD SOUTHBOUND,,39.030728,-94.567844,,,,,,0
5400049,5400049,ON PASEO AT 43RD NORTHBOUND,,39.048567,-94.567812,,,,,,0
5400134,5400134,ON PASEO AT 41ST SOUTHBOUND,,39.052561,-94.567776,,,,,,0
5400142,5400142,ON PASEO AT 51ST SOUTHBOUND,,39.034396,-94.567655,,,,,,0
5400038,5400038,ON PASEO AT 57TH NORTHBOUND,,39.023223,-94.567607,,,,,,0
1200133,1200133,ON 12TH AT TRACY EASTBOUND,,39.099346,-94.56758,,,,,,0
5400051,5400051,ON PASEO AT 41ST NORTHBOUND,,39.052174,-94.56758,,,,,,0
5400132,5400132,ON PASEO AT 39TH SOUTHBOUND,,39.056069,-94.56756,,,,,,0
5300024,5300024,ON ARMOUR AT PASEO WESTBOUND,,39.063167,-94.567493,,,,,,0
542503,542503,ON PASEO AT 49TH NB,,39.037765,-94.567481,,,,,,0
540002,540002,ON PASEO AT 85TH ST SB,,38.973205,-94.567442,,,,,,0
5400040,5400040,ON PASEO AT 55TH NORTHBOUND,,39.026852,-94.567423,,,,,,0
5400130,5400130,ON PASEO AT 37TH SOUTHBOUND,,39.059656,-94.567403,,,,,,0
5400053,5400053,ON PASEO AT 39TH NORTHBOUND,,39.05577,-94.567366,,,,,,0
390053,390053,ON 39TH AT PASEO WESTBOUND,,39.055969,-94.567332,,,,,,0
390141,390141,ON 39TH AT PASEO EASTBOUND FARSIDE,,39.055852,-94.567292,,,,,,0
540019,540019,ON PASEO AT 85TH ST NB,,38.97322,-94.567287,,,,,,0
5400177,5400177,ON PASEO AT 83RD SOUTHBOUND,,38.977171,-94.567267,,,,,,0
5400042,5400042,ON PASEO AT 53RD NORTHBOUND,,39.030468,-94.567226,,,,,,0
5400176,5400176,ON PASEO AT 82ND SOUTHBOUND,,38.978389,-94.567204,,,,,,0
5400055,5400055,ON PASEO AT 37TH NORTHBOUND,,39.059347,-94.567192,,,,,,0
3000071,3000071,ON 8TH AT TRACY EASTBOUND,,39.103917,-94.567181,,,,,,0
85171,85171,ON PASEO AT ARMOUR SOUTHBOUND FARSIDE,,39.062989,-94.567154,,,,,,0
5400010,5400010,ON PASEO AT 83RD NORTHBOUND,,38.977166,-94.567105,,,,,,0
5400174,5400174,ON PASEO AT 80TH SOUTHBOUND,,38.98296,-94.567,,,,,,0
5400011,5400011,ON PASEO AT 81ST TERRACE NORTHBOUND,,38.979146,-94.566985,,,,,,0
5400044,5400044,ON PASEO AT BROOKWOOD NORTHBOUND,,39.033961,-94.566982,,,,,,0
5400173,5400173,ON PASEO AT 79TH SOUTHBOUND,,38.984091,-94.566945,,,,,,0
11181,11181,ON 9TH AT TRACY AVE WESTBOUND,,39.103067,-94.566944,,,,,,0
271301,271301,ON 27TH ST AT WEST PASEO EASTBOUND,,39.077528,-94.566897,,,,,,0
271302,271302,ON 27TH ST AT WEST PASEO WESTBOUND,,39.077635,-94.56689,,,,,,0
5300094,5300094,ON ARMOUR AT PASEO EASTBOUND,,39.063003,-94.566866,,,,,,0
5400012,5400012,ON PASEO AT 80TH NORTHBOUND,,38.982035,-94.566844,,,,,,0
5400172,5400172,ON PASEO AT 77TH TERR SOUTHBOUND,,38.986087,-94.566799,,,,,,0
1080161,1080161,ON 18TH AT LYDIA WESTBOUND,,39.091333,-94.566789,,,,,,0
5400171,5400171,ON PASEO AT 76TH TERRACE SOUTHBOUND,,38.988181,-94.566746,,,,,,0
3100068,3100068,ON 31ST AT PASEO EASTBOUND,,39.070305,-94.56674,,,,,,0
4700031,4700031,ON CLEAVER II BLVD AT 1526 CLEAVER II BLVD WB,,39.042043,-94.56666,,,,,,0
1750092,1750092,ON 75TH AT PASEO EASTBOUND,,38.99111,-94.566653,,,,,,0
5400168,5400168,ON PASEO AT 75TH SOUTHBOUND,,38.99132,-94.566594,,,,,,0
3100028,3100028,ON 31ST AT PASEO WESTBOUND,,39.070381,-94.566525,,,,,,0
5400167,5400167,ON PASEO AT 74TH SOUTHBOUND,,38.993092,-94.56649,,,,,,0
5400014,5400014,ON PASEO AT 79TH NORTHBOUND,,38.984091,-94.566389,,,,,,0
542502,542502,ON PASEO AT RACHEL MORADO 77TH NB,,38.98712,-94.566242,,,,,,0
5400016,5400016,ON PASEO AT 76TH TERRACE NORTHBOUND,,38.987907,-94.566196,,,,,,0
6300033,6300033,ON 63RD AT BUSHMAN WESTBOUND,,39.012999,-94.566135,,,,,,0
2400105,2400105,ON INDEPENDENCE AVE AT VIRGINIA EASTBOUND,,39.106828,-94.566059,,,,,,0
2700045,2700045,ON 27TH AT PASEO WESTBOUND,,39.077604,-94.566056,,,,,,0
2700113,2700113,ON 27TH AT PASEO EASTBOUND,,39.077498,-94.566055,,,,,,0
5400019,5400019,ON PASEO AT 75TH NORTHBOUND,,38.991323,-94.56603,,,,,,0
7100131,7100131,ON TRUMAN AT LYDIA EASTBOUND,,39.095169,-94.565956,,,,,,0
5400020,5400020,ON PASEO AT 74TH NORTHBOUND,,38.992853,-94.565942,,,,,,0
1750028,1750028,ON 75TH AT PASEO WESTBOUND,,38.991218,-94.56593,,,,,,0
5400159,5400159,ON PASEO AT WOODLAND SOUTHBOUND,,39.007072,-94.565926,,,,,,0
4700174,4700174,ON CLEAVER II BLVD AT 1525 E CLEAVER II BLVD EB,,39.042017,-94.565847,,,,,,0
2400070,2400070,ON INDEPENDENCE AVE AT VIRGINIA WESTBOUND,,39.106909,-94.565804,,,,,,0
7100080,7100080,ON TRUMAN AT LYDIA WESTBOUND,,39.095267,-94.565718,,,,,,0
5400165,5400165,ON PASEO AT 72ND SOUTHBOUND,,38.996472,-94.565667,,,,,,0
5400028,5400028,ON PASEO AT WOODLAND NORTHBOUND,,39.007115,-94.565632,,,,,,0
1080160,1080160,ON 18TH BETWEEN PASEO & GROVE WESTBOUND,,39.09128,-94.565522,,,,,,0
3100027,3100027,ON 31ST AT FLORA WESTBOUND,,39.070349,-94.565427,,,,,,0
390142,390142,ON 39TH AT WAYNE EB,,39.055798,-94.565329,,,,,,0
110069,110069,ON 10TH AT LYDIA EASTBOUND,,39.101686,-94.565262,,,,,,0
3100069,3100069,ON 31ST AT FLORA EASTBOUND,,39.070262,-94.565205,,,,,,0
1350036,1350036,ON ARMOUR RD AT OZARK  WESTBOUND,,39.14417,-94.565202,,,,,,0
5400022,5400022,ON PASEO AT 72ND NORTHBOUND,,38.996435,-94.565162,,,,,,0
10192,10192,ON 11TH AT LYDIA WESTBOUND NEARSIDE,,39.100584,-94.565064,,,,,,0
1350077,1350077,ON ARMOUR AT OZARK EASTBOUND,,39.144075,-94.565049,,,,,,0
390052,390052,ON 39TH AT WAYNE WESTBOUND,,39.055879,-94.565046,,,,,,0
1080202,1080202,ON 18TH BETWEEN GROVE AND PASEO EASTBOUND,,39.091174,-94.565019,,,,,,0
5300095,5300095,ON 35TH AT WAYNE EASTBOUND,,39.06297,-94.564933,,,,,,0
6300065,6300065,ON 63RD AT WOODLAND EASTBOUND,,39.012824,-94.564868,,,,,,0
6300032,6300032,ON 63RD AT CITADEL WESTBOUND,,39.012914,-94.564846,,,,,,0
5300022,5300022,ON 35TH AT WAYNE WESTBOUND,,39.063074,-94.564639,,,,,,0
3100070,3100070,ON 31ST AT WAYNE EASTBOUND,,39.07025,-94.564519,,,,,,0
5400164,5400164,ON PASEO AT GREGORY SOUTHBOUND,,38.998474,-94.564418,,,,,,0
3100026,3100026,ON 31ST AT WAYNE WESTBOUND,,39.070321,-94.56426,,,,,,0
2572303,2572303,ON 95TH TERR AT EUCLID WESTBOUND,,38.956409,-94.564208,,,,,,0
4702,4702,ON CLEAVER II BLVD AT 1706 EAST,,39.043182,-94.564173,,,,,,0
1200134,1200134,ON 12TH AT PASEO EASTBOUND,,39.099242,-94.564169,,,,,,0
25087,25087,ON 95TH TERR AT EUCLID EASTBOUND,,38.956303,-94.564142,,,,,,0
5400160,5400160,ON PASEO AT 67TH SOUTHBOUND,,39.005674,-94.564082,,,,,,0
110070,110070,ON 10TH AT SOUTHBOUND PASEO EASTBOUND,,39.101647,-94.564031,,,,,,0
5400023,5400023,ON PASEO AT GREGORY NORTHBOUND,,38.998242,-94.564011,,,,,,0
3000045,3000045,ON 9TH AT PASEO WB,,39.10307,-94.563967,,,,,,0
390051,390051,ON 39TH AT WOODLAND WESTBOUND,,39.055843,-94.563868,,,,,,0
5400027,5400027,ON 67TH AT SB PASEO WB,,39.005649,-94.563714,,,,,,0
4700175,4700175,ON CLEAVER II BLVD AT WOODLAND EASTBOUND,,39.043292,-94.563636,,,,,,0
1080204,1080204,ON 18TH AT VINE EASTBOUND,,39.091143,-94.563483,,,,,,0
4700030,4700030,ON CLEAVER II BLVD AT WOODLAND WESTBOUND,,39.043479,-94.563457,,,,,,0
2400069,2400069,ON INDEPENDENCE AVE AT PASEO WESTBOUND,,39.106813,-94.563323,,,,,,0
1080159,1080159,ON 18TH AT VINE WESTBOUND,,39.091238,-94.563274,,,,,,0
2400106,2400106,ON INDEPENDENCE AVE AT PASEO EASTBOUND FARSIDE,,39.106692,-94.563269,,,,,,0
6300066,6300066,ON 63RD AT EUCLID EASTBOUND,,39.012749,-94.56315,,,,,,0
2572201,2572201,ON 95TH TERR AT GARFIELD WESTBOUND,,38.956822,-94.563111,,,,,,0
25088,25088,ON 95TH TERR AT GARFIELD EASTBOUND,,38.956731,-94.562988,,,,,,0
2850079,2850079,ON 39TH AT WOODLAND EASTBOUND,,39.055722,-94.562974,,,,,,0
5400161,5400161,ON PASEO AT 68TH SOUTHBOUND,,39.003852,-94.56296,,,,,,0
6300031,6300031,ON 63RD AT EUCLID WESTBOUND,,39.012816,-94.562928,,,,,,0
3000072,3000072,ON 8TH AT PASEO EASTBOUND,,39.103776,-94.562835,,,,,,0
272506,272506,ON 27TH ST AT 71 HWY EB,,39.077387,-94.562775,,,,,,0
272503,272503,ON 27TH ST AT 71 HWY WB,,39.077505,-94.562773,,,,,,0
5400162,5400162,ON PASEO AT 69TH SOUTHBOUND,,39.002045,-94.562713,,,,,,0
5300096,5300096,ON 35TH AT WOODLAND EASTBOUND,,39.06289,-94.562597,,,,,,0
7100132,7100132,ON TRUMAN AT PASEO EASTBOUND FARSIDE,,39.095044,-94.56243,,,,,,0
110038,110038,ON ELLA FITZGERALD AT BASIE ST WESTBOUND,,39.100293,-94.562419,,,,,,0
541512,541512,ON 67TH AT PASEO WB,,39.005561,-94.562304,,,,,,0
23526,23526,ON 35TH AT WOODLAND WB,,39.062991,-94.562292,,,,,,0
110030,110030,ON 18TH AT HIGHLAND EASTBOUND,,39.091107,-94.562279,,,,,,0
5400025,5400025,ON PASEO AT 69TH NORTHBOUND,,39.001724,-94.56226,,,,,,0
3100072,3100072,ON 31ST AT WOODLAND EASTBOUND,,39.070144,-94.562219,,,,,,0
5400026,5400026,ON PASEO AT 68TH NORTHBOUND,,39.003578,-94.562152,,,,,,0
8449,8449,ON DAVIDSON AT PARVIN SB,,39.168046,-94.562096,,,,,,0
1080158,1080158,ON 18TH AT HIGHLAND WESTBOUND,,39.0912,-94.56207,,,,,,0
1462,1462,ON DAVIDSON AT PARVIN NB,,39.167868,-94.562068,,,,,,0
3100024,3100024,ON 31ST AT WOODLAND WESTBOUND,,39.070217,-94.562,,,,,,0
11169,11169,ON 9TH AT HIGHLAND WESTBOUND,,39.103004,-94.561812,,,,,,0
1090059,1090059,ON MARYLOU WMS AT HIGHLAND EB,,39.102281,-94.561805,,,,,,0
1750026,1750026,ON 75TH AT BROOKLYN WESTBOUND NEARSIDE,,38.99104,-94.561738,,,,,,0
272502,272502,ON 27TH AT WOODLAND WB,,39.07744,-94.561602,,,,,,0
75191,75191,ON E 75TH AT BROOKLYN/PARK EASTBOUND,,38.990928,-94.56155,,,,,,0
272507,272507,ON 27TH AT WOODLAND EB,,39.077315,-94.561372,,,,,,0
80001,80001,ON 18TH ST AT WOODLAND EB,,39.091078,-94.561153,,,,,,0
7100077,7100077,ON TRUMAN AT WOODLAND WESTBOUND FARSIDE,,39.095101,-94.561061,,,,,,0
1080157,1080157,ON 18TH AT WOODLAND WESTBOUND,,39.091164,-94.560951,,,,,,0
6300067,6300067,ON 63RD AT BROOKLYN EASTBOUND,,39.012648,-94.560876,,,,,,0
1200059,1200059,ON ELLA FITZGERALD AT WOODLAND WESTBOUND,,39.099293,-94.560826,,,,,,0
1200136,1200136,ON 12TH AT WOODLAND EASTBOUND,,39.099053,-94.560795,,,,,,0
711501,711501,ON TRUMAN AT WOODLAND EASTBOUND FARSIDE,,39.094982,-94.560756,,,,,,0
25096,25096,ON 95TH TER AT BANNISTER FEDERAL COMPLEX WB,,38.957617,-94.560742,,,,,,0
25097,25097,ON 95TH TER AT 2606 E BANNISTER EASTBOUND,,38.957513,-94.56074,,,,,,0
6300030,6300030,ON 63RD AT BROOKLYN WESTBOUND,,39.012723,-94.56052,,,,,,0
8669,8669,ON DAVIDSON AT 42ND TER SB,,39.17214,-94.560513,,,,,,0
3000042,3000042,ON WOODLAND AT 8TH WESTBOUND,,39.103866,-94.56048,,,,,,0
3000074,3000074,ON WOODLAND AT 8TH NORTHBOUND,,39.104045,-94.560337,,,,,,0
1090033,1090033,ON 9TH AT WOODLAND WESTBOUND,,39.102884,-94.560334,,,,,,0
1090061,1090061,ON 9TH AT WOODLAND EASTBOUND,,39.102749,-94.56033,,,,,,0
3000041,3000041,ON WOODLAND AT INDEPENDENCE AVE SB FARSIDE,,39.106507,-94.560287,,,,,,0
7631,7631,ON DAVIDSON AT 42ND TER NB,,39.171976,-94.560227,,,,,,0
2400067,2400067,ON INDEPENDENCE  AT WOODLAND WB,,39.10669,-94.559981,,,,,,0
2400108,2400108,ON INDEPENDENCE  AT WOODLAND EASTBOUND,,39.106561,-94.559764,,,,,,0
6300068,6300068,ON 63RD AT PARK EASTBOUND,,39.012595,-94.559554,,,,,,0
3800041,3800041,ON N HIGHLAND AT KNOLLWOOD APTS SOUTHBOUND,,39.179939,-94.559466,,,,,,0
6300029,6300029,ON 63RD AT PARK WESTBOUND,,39.012672,-94.559343,,,,,,0
382300,382300,ON N HIGHLAND AT 4761 N HIGHLAND NORTHBOUND,,39.179901,-94.559284,,,,,,0
3800139,3800139,ON HIGHLAND AT NE VIVION NORTHBOUND,,39.180847,-94.558963,,,,,,0
1080156,1080156,ON 18TH AT EUCLID WESTBOUND,,39.091101,-94.558898,,,,,,0
3800042,3800042,ON N HIGHLAND AT N. 46TH ST SOUTHBOUND,,39.175407,-94.558872,,,,,,0
1080207,1080207,ON 18TH AT EUCLID EB,,39.090997,-94.558844,,,,,,0
3800043,3800043,ON N DAVIDSON AT NE 46TH ST NB NS,,39.175207,-94.558789,,,,,,0
3100073,3100073,ON 31ST AT GARFIELD EASTBOUND,,39.070019,-94.558739,,,,,,0
3000040,3000040,ON MAPLE BLVD AT MISSOURI SOUTHBOUND,,39.10905,-94.558536,,,,,,0
3100023,3100023,ON 31ST AT GARFIELD WESTBOUND,,39.070095,-94.558524,,,,,,0
390145,390145,ON 39TH AT BROOKLYN EASTBOUND,,39.055537,-94.558405,,,,,,0
3000077,3000077,ON MAPLE AT MISSOURI NORTHBOUND,,39.109104,-94.558394,,,,,,0
1090062,1090062,ON 9TH AT EUCLID EASTBOUND,,39.102642,-94.558385,,,,,,0
5400002,5400002,ON PROSPECT AT 85TH SOUTHBOUND,,38.972748,-94.558204,,,,,,0
5400183,5400183,ON PROSPECT AT 85TH NORTHBOUND,,38.972799,-94.558092,,,,,,0
23524,23524,ON 35TH AT BROOKLYN WESTBOUND FARSIDE,,39.062834,-94.558035,,,,,,0
23502,23502,ON 35TH AT BROOKLYN AVE EASTBOUND,,39.062733,-94.558012,,,,,,0
173100,173100,ON ARMOUR AT VERNON EASTBOUND,,39.145256,-94.55795,,,,,,0
390049,390049,ON 39TH AT BROOKLYN WESTBOUND,,39.055682,-94.557905,,,,,,0
17103,17103,ON PROSPECT AT 80TH SB,,38.981855,-94.557792,,,,,,0
17102,17102,ON PROSPECT AT 79TH SB,,38.983656,-94.55773,,,,,,0
175157,175157,ON PROSPECT AT 81ST NB,,38.980069,-94.557715,,,,,,0
1350035,1350035,ON ARMOUR RD BETWEEN VERNON AND TANEY WB,,39.145583,-94.557689,,,,,,0
712402,712402,ON PROSPECT AT 77TH TERR SB,,38.985105,-94.557679,,,,,,0
17108,17108,ON PROSPECT AT 80TH NORTHBOUND,,38.98167,-94.55767,,,,,,0
712403,712403,ON PROSPECT AT 79TH NB,,38.983517,-94.557616,,,,,,0
1330138,1330138,ON VIVION AT 2000 NE VIVION WB,,39.181277,-94.557593,,,,,,0
3100074,3100074,ON 31ST AT BROOKLYN EASTBOUND,,39.069982,-94.557588,,,,,,0
17101,17101,ON PROSPECT AT 77TH ST SB,,38.987282,-94.557522,,,,,,0
17109,17109,ON PROSPECT AT 78TH NORTHBOUND,,38.98494,-94.557515,,,,,,0
17110,17110,ON PROSPECT AT 77TH NORTHBOUND,,38.986743,-94.55743,,,,,,0
3100022,3100022,ON 31ST AT BROOKLYN WESTBOUND,,39.070059,-94.55739,,,,,,0
2400110,2400110,ON INDEPENDENCE AVE AT GARFIELD EASTBOUND,,39.10649,-94.557306,,,,,,0
7100197,7100197,ON PROSPECT AT 74TH SOUTHBOUND,,38.992687,-94.557257,,,,,,0
2700116,2700116,ON 27TH AT BROOKLYN EASTBOUND,,39.077195,-94.557236,,,,,,0
712401,712401,ON PROSPECT AT 75TH TRANSIT CENTER NORTHBOUND,,38.990374,-94.55723,,,,,,0
7100196,7100196,ON PROSPECT AT 73RD SOUTHBOUND,,38.994334,-94.557188,,,,,,0
7100013,7100013,ON PROSPECT AT 74TH NORTHBOUND,,38.992501,-94.55713,,,,,,0
7100014,7100014,ON PROSPECT AT 73RD NORTHBOUND,,38.994329,-94.557053,,,,,,0
3000079,3000079,ON LEXINGTON AT GARFIELD EASTBOUND,,39.111034,-94.557049,,,,,,0
2400065,2400065,ON INDEPENDENCE AVE AT GARFIELD WESTBOUND,,39.106588,-94.557021,,,,,,0
7100194,7100194,ON PROSPECT AT GREGORY SOUTHBOUND FARSIDE,,38.997915,-94.556972,,,,,,0
1090032,1090032,ON 9TH AT EUCLID WESTBOUND,,39.102693,-94.556951,,,,,,0
2700042,2700042,ON 27TH AT BROOKLYN WESTBOUND,,39.077302,-94.556942,,,,,,0
7100193,7100193,ON PROSPECT AT 70TH SOUTHBOUND,,38.999943,-94.556875,,,,,,0
7100016,7100016,ON PROSPECT AT GREGORY NORTHBOUND FARSIDE,,38.998344,-94.556818,,,,,,0
23503,23503,ON 35TH AT PARK EASTBOUND,,39.06268,-94.556817,,,,,,0
7100192,7100192,ON PROSPECT AT 69TH SOUTHBOUND,,39.001765,-94.556807,,,,,,0
3000038,3000038,ON LEXINGTON AT GARFIELD WESTBOUND,,39.111117,-94.556779,,,,,,0
7100017,7100017,ON PROSPECT AT 70TH NORTHBOUND,,38.999758,-94.55675,,,,,,0
5300007,5300007,ON SWOPE PKWY AT BRUCE WATKINS PKWY WESTBOUND,,39.04005,-94.556684,,,,,,0
7100018,7100018,ON PROSPECT AT 69TH NORTHBOUND,,39.001555,-94.556673,,,,,,0
2020,2020,75TH & PROSPECT TRANSIT CENTER (LOCAL A),,38.989691,-94.556634,,,,,,0
7100190,7100190,ON PROSPECT AT 67TH SOUTHBOUND,,39.005372,-94.556603,,,,,,0
1080208,1080208,ON 18TH ST AT BROOKLYN EASTBOUND,,39.090927,-94.556566,,,,,,0
7100188,7100188,ON PROSPECT AT MEYER SOUTHBOUND,,39.007495,-94.556556,,,,,,0
23523,23523,ON 35TH AT PARK WB,,39.062795,-94.556543,,,,,,0
1478,1478,ON PARVIN AT RUSSELL WB,,39.16695,-94.556538,,,,,,0
2019,2019,75TH & PROSPECT TRANSIT CENTER (LOCAL B),,38.989938,-94.556532,,,,,,0
7100020,7100020,ON PROSPECT AT 67TH NORTHBOUND,,39.005187,-94.556478,,,,,,0
7100136,7100136,ON TRUMAN AT BROOKLYN EASTBOUND,,39.094838,-94.556403,,,,,,0
9647,9647,ON PARVIN AT RUSSELL EB,,39.166892,-94.556375,,,,,,0
1080155,1080155,ON 18TH AT BROOKLYN WESTBOUND,,39.09102,-94.556357,,,,,,0
7100186,7100186,ON PROSPECT AT 64TH SOUTHBOUND,,39.010245,-94.55635,,,,,,0
7100075,7100075,ON TRUMAN AT BROOKLYN WESTBOUND FARSIDE,,39.094949,-94.556331,,,,,,0
752019,752019,75TH AND PROSPECT TRANSIT CENTER,,38.990183,-94.55633,,,,,,0
6300069,6300069,ON 63RD AT PROSPECT EASTBOUND,,39.012397,-94.556306,,,,,,0
7100022,7100022,ON PROSPECT AT MEYER FS NB,,39.007559,-94.556296,,,,,,0
7100185,7100185,ON PROSPECT AT 63RD SOUTHBOUND,,39.012637,-94.556235,,,,,,0
1200056,1200056,ON 12TH AT BROOKLYN WESTBOUND,E 12TH ST & BROOKLYN AVE,39.099107,-94.555848,,,,,,0
7100024,7100024,ON PROSPECT 6407 PROSPECT NORTHBOUND,,39.010271,-94.556211,,,,,,0
1200139,1200139,ON 12TH AT BROOKLYN EASTBOUND,,39.099003,-94.556133,,,,,,0
1330028,1330028,ON PRATHER AT CHIPPWEA SOUTHBOUND,,39.156362,-94.556125,,,,,,0
7100025,7100025,ON PROSPECT AT 63RD NORTHBOUND,,39.012348,-94.556112,,,,,,0
6300028,6300028,ON 63RD AT PROSPECT WESTBOUND,,39.012588,-94.556051,,,,,,0
390146,390146,ON 39TH AT OLIVE EASTBOUND,,39.055448,-94.556049,,,,,,0
7100182,7100182,ON PROSPECT AT 6024 SOUTHBOUND,,39.016961,-94.556024,,,,,,0
1330030,1330030,ON VERNON AT MOHAWK SOUTHBOUND,,39.152086,-94.556016,,,,,,0
7100028,7100028,ON PROSPECT 6025 PROSPECT NORTHBOUND,,39.016708,-94.555906,,,,,,0
1330115,1330115,ON VERNON AT MOHAWK NORTHBOUND,,39.152338,-94.55588,,,,,,0
7100180,7100180,ON PROSPECT AT 59TH SOUTHBOUND,,39.01919,-94.555855,,,,,,0
1090031,1090031,ON 9TH AT BROOKLYN WESTBOUND,,39.10267,-94.555714,,,,,,0
1330114,1330114,ON VERNON AT 26TH NORTHBOUND,,39.148455,-94.555692,,,,,,0
1330117,1330117,ON PRATHER AT 34TH TERR NORTHBOUND,,39.157577,-94.555688,,,,,,0
7100030,7100030,ON PROSPECT AT 59TH NORTHBOUND FARSIDE,,39.019412,-94.555671,,,,,,0
1090063,1090063,ON 9TH AT BROOKLYN EASTBOUND FARSIDE,,39.102558,-94.555666,,,,,,0
390048,390048,ON 39TH AT OLIVE WESTBOUND,,39.055567,-94.555609,,,,,,0
71911,71911,ON PROSPECT AT 58TH SOUTHBOUND NEARSIDE,,39.021196,-94.555589,,,,,,0
5300110,5300110,ON SWOPE PKWY AT 2323 E 47TH EASTBOUND,,39.039182,-94.555574,,,,,,0
71192,71192,ON PROSPECT AT 58TH NORTHBOUND NEARISDE,,39.021008,-94.555468,,,,,,0
7100178,7100178,ON PROSPECT AT 57TH SOUTHBOUND,,39.023,-94.555458,,,,,,0
1330027,1330027,ON PRATHER AT GARFIELD SOUTHBOUND,,39.159594,-94.555413,,,,,,0
1330118,1330118,ON PRATHER AT ROCKCREEK PKWY NORTHBOUND,,39.159063,-94.555379,,,,,,0
7100177,7100177,ON PROSPECT AT 56TH SOUTHBOUND,,39.02481,-94.555349,,,,,,0
7100032,7100032,ON PROSPECT AT 57TH NORTHBOUND,,39.022815,-94.555337,,,,,,0
3100075,3100075,ON 31ST AT OLIVE EASTBOUND,,39.069905,-94.555265,,,,,,0
7100176,7100176,ON PROSPECT AT 55TH SOUTHBOUND,,39.026629,-94.555239,,,,,,0
7100033,7100033,ON PROSPECT AT 56TH NORTHBOUND,,39.024625,-94.555224,,,,,,0
7100175,7100175,ON PROSPECT AT 54TH SOUTHBOUND,,39.028444,-94.555126,,,,,,0
7100034,7100034,ON PROSPECT AT 55TH NORTHBOUND FARSIDE,,39.026681,-94.555097,,,,,,0
1330026,1330026,ON PRATHER AT 37TH SOUTHBOUND,,39.161235,-94.555071,,,,,,0
3100021,3100021,ON 31ST AT OLIVE WESTBOUND,,39.069981,-94.55505,,,,,,0
7100174,7100174,ON PROSPECT AT 53RD SOUTHBOUND,,39.030225,-94.555025,,,,,,0
7100035,7100035,ON PROSPECT AT 54TH NORTHBOUND,,39.028259,-94.555001,,,,,,0
2700117,2700117,ON 27TH AT OLIVE EASTBOUND,,39.077125,-94.554955,,,,,,0
7100173,7100173,ON PROSPECT AT 52ND SOUTHBOUND,,39.032051,-94.554918,,,,,,0
7100036,7100036,ON PROSPECT AT 53RD NB,,39.03004,-94.5549,,,,,,0
7100172,7100172,ON PROSPECT AT 51ST SOUTHBOUND,,39.033422,-94.554838,,,,,,0
1330137,1330137,ON VIVION AT GARFIELD WESTBOUND,,39.182373,-94.554828,,,,,,0
7100037,7100037,ON PROSPECT AT 52ND NORTHBOUND,,39.031842,-94.554794,,,,,,0
1730702,1730702,ON FRONT ST AT OLIVE WB,,39.124411,-94.554751,,,,,,0
7100171,7100171,ON PROSPECT AT 50TH SOUTHBOUND,,39.035433,-94.554711,,,,,,0
7100038,7100038,ON PROSPECT AT 51ST NORTHBOUND,,39.033646,-94.554681,,,,,,0
5300112,5300112,ON SWOPE PKWY AT PROSPECT EASTBOUND,,39.038825,-94.554658,,,,,,0
1730701,1730701,ON FRONT ST AT OLIVE EB,,39.12435,-94.554655,,,,,,0
2700041,2700041,ON 27TH AT OLIVE WESTBOUND,,39.077222,-94.55464,,,,,,0
1330007,1330007,ON VIVION AT GARFIELD/GADDY EASTBOUND,,39.182272,-94.554639,,,,,,0
1330119,1330119,ON PRATHER AT 37TH TERR NORTHBOUND,,39.162376,-94.55462,,,,,,0
7100039,7100039,ON PROSPECT AT 50TH NORTHBOUND,,39.035457,-94.554579,,,,,,0
7100170,7100170,ON PROSPECT AT SWOPE PARKWAY SB NS,,39.039146,-94.554568,,,,,,0
390047,390047,ON 39TH AT PROSPECT WESTBOUND,,39.05552,-94.554461,,,,,,0
7100169,7100169,ON PROSPECT AT CLEAVER II BLVD SB,,39.041232,-94.554436,,,,,,0
712300,712300,ON PROSPECT AT SWOPE PKWY NORTHBOUND,,39.039182,-94.55439,,,,,,0
1330023,1330023,ON PRATHER AT 39TH SB,,39.164484,-94.554372,,,,,,0
7100168,7100168,ON PROSPECT AT 46TH SOUTHBOUND,,39.042923,-94.554338,,,,,,0
7100041,7100041,ON PROSPECT AT CLEAVER II BLVD NB,,39.041218,-94.554283,,,,,,0
7100167,7100167,ON PROSPECT AT 45TH SOUTHBOUND,,39.044728,-94.554232,,,,,,0
4700029,4700029,ON SWOPE PKWY AT PROSPECT WB NEARSIDE,,39.039015,-94.554219,,,,,,0
7100042,7100042,ON PROSPECT AT 46TH NORTHBOUND,,39.042666,-94.554199,,,,,,0
1330121,1330121,ON PRATHER AT 39TH NORTHBOUND,,39.164452,-94.554185,,,,,,0
7100166,7100166,ON PROSPECT AT 44TH SOUTHBOUND,,39.046591,-94.554155,,,,,,0
7100043,7100043,ON PROSPECT AT 45TH NORTHBOUND,,39.044499,-94.554099,,,,,,0
7100165,7100165,ON PROSPECT AT 43RD SOUTHBOUND,,39.047934,-94.554052,,,,,,0
7100044,7100044,ON PROSPECT AT 44TH NORTHBOUND,,39.046295,-94.553994,,,,,,0
7100164,7100164,ON PROSPECT AT 42ND SOUTHBOUND,,39.050174,-94.553956,,,,,,0
7100045,7100045,ON PROSPECT AT 43RD NORTHBOUND,,39.04815,-94.553892,,,,,,0
7100163,7100163,ON PROSPECT AT 41ST SOUTHBOUND,,39.051965,-94.553844,,,,,,0
2400112,2400112,ON INDEPENDENCE AVE AT OLIVE EASTBOUND,,39.10637,-94.553833,,,,,,0
712301,712301,ON PROSPECT AT 42ND NORTHBOUND,,39.049914,-94.55381,,,,,,0
7100162,7100162,ON PROSPECT AT 40TH SOUTHBOUND,,39.0537,-94.553757,,,,,,0
390147,390147,ON 39TH AT PROSPECT EASTBOUND,,39.05536,-94.553738,,,,,,0
7100046,7100046,ON PROSPECT AT 41ST NORTHBOUND,,39.051757,-94.553713,,,,,,0
1090064,1090064,ON 9TH AT OLIVE EASTBOUND,,39.1025,-94.553695,,,,,,0
7100161,7100161,ON PROSPECT AT 39TH SOUTHBOUND,,39.055594,-94.553659,,,,,,0
7100047,7100047,ON PROSPECT AT 40TH NORTHBOUND,,39.053543,-94.553622,,,,,,0
2400063,2400063,ON INDEPENDENCE AVE AT OLIVE WESTBOUND,,39.106454,-94.553618,,,,,,0
3000081,3000081,ON LEXINGTON AT OLIVE EASTBOUND,,39.110934,-94.553575,,,,,,0
7100048,7100048,ON PROSPECT AT 39TH NORTHBOUND FARSIDE,,39.055559,-94.553509,,,,,,0
9936,9936,ON PARVIN AT PRATHER EB,,39.167617,-94.553476,,,,,,0
1090030,1090030,ON 9TH AT OLIVE WESTBOUND,,39.102617,-94.55346,,,,,,0
7100159,7100159,ON PROSPECT AT 37TH SOUTHBOUND,,39.059201,-94.553455,,,,,,0
3000036,3000036,ON LEXINGTON AT OLIVE WESTBOUND,,39.11099,-94.553372,,,,,,0
6438,6438,ON PARVIN AT PRATHER WB,,39.167696,-94.553361,,,,,,0
23522,23522,ON 35TH AT PROSPECT WESTBOUND,,39.062694,-94.553316,,,,,,0
7100050,7100050,ON PROSPECT AT 37TH NORTHBOUND,,39.059263,-94.553307,,,,,,0
7100156,7100156,ON PROSPECT AT 35TH SOUTHBOUND MIDBLOCK,,39.062025,-94.553303,,,,,,0
7100155,7100155,ON PROSPECT AT 34TH SOUTHBOUND,,39.064557,-94.553197,,,,,,0
7100052,7100052,ON PROSPECT AT 35TH NORTHBOUND MIDBLOCK,,39.061991,-94.553166,,,,,,0
7100154,7100154,ON PROSPECT AT 33RD SOUTHBOUND,,39.066373,-94.553084,,,,,,0
7100053,7100053,ON PROSPECT AT 34TH NORTHBOUND,,39.064313,-94.553036,,,,,,0
7100153,7100153,ON PROSPECT AT LINWOOD SOUTHBOUND,,39.067871,-94.553017,,,,,,0
23504,23504,ON 35TH AT PROSPECT EASTBOUND FARSIDE,,39.062574,-94.553014,,,,,,0
3100076,3100076,ON 31ST AT PROSPECT EASTBOUND,,39.069792,-94.552977,,,,,,0
7100054,7100054,ON PROSPECT AT 33RD NORTHBOUND,,39.066138,-94.552943,,,,,,0
7100152,7100152,ON PROSPECT AT 31ST SOUTHBOUND FARSIDE,,39.069612,-94.552921,,,,,,0
7100055,7100055,ON PROSPECT AT LINWOOD NORTHBOUND,,39.067943,-94.552859,,,,,,0
7100056,7100056,ON PROSPECT AT 31ST NORTHBOUND,,39.06974,-94.552764,,,,,,0
7100150,7100150,ON PROSPECT AT 29TH SOUTHBOUND,,39.07358,-94.552742,,,,,,0
3100020,3100020,ON 31ST AT PROSPECT WESTBOUND,,39.069891,-94.552721,,,,,,0
2700118,2700118,ON 27TH AT PROSPECT EASTBOUND,,39.077047,-94.552618,,,,,,0
7100058,7100058,ON PROSPECT AT 29TH NORTHBOUND,,39.072843,-94.552616,,,,,,0
7100059,7100059,ON PROSPECT AT VICTOR NORTHBOUND,,39.073727,-94.55258,,,,,,0
8396,8396,ON CLAY EDWARDS DR AT 2700 SB,,39.149173,-94.552572,,,,,,0
7100148,7100148,ON PROSPECT AT 27TH SOUTHBOUND FARSIDE,,39.076822,-94.552569,,,,,,0
6300070,6300070,ON 63RD AT SOUTH BENTON EASTBOUND,,39.01223,-94.552522,,,,,,0
